{
"type": "FeatureCollection",
"name": "PolyGyms",
"crs": { "type": "name", "properties": { "name": "urn:ogc:def:crs:OGC:1.3:CRS84" } },
"features": [
{ "type": "Feature", "properties": { "Nome": "McFit", "Indirizzo": "Via Pier Francesco Mola 48", "Categories": "Gyms", "Average Star Rating": 4.0, "Review Count": 1, "Neighborhood": "Villapizzone", "info": "PALESTRA" }, "geometry": { "type": "Point", "coordinates": [ 9.13968555629253, 45.4959930980853 ] } },
{ "type": "Feature", "properties": { "Nome": "Hard Candy Fitness", "Indirizzo": "Via Parini 1", "Categories": "Gyms", "Average Star Rating": 3.7, "Review Count": 3, "Neighborhood": "Brera", "info": "PALESTRA" }, "geometry": { "type": "Point", "coordinates": [ 9.19521298259497, 45.4775893677581 ] } },
{ "type": "Feature", "properties": { "Nome": "Get Fit Express", "Indirizzo": "Piazza Città di Lombardia 5", "Categories": "Gyms", "Average Star Rating": 4.3, "Review Count": 3, "Neighborhood": "GARIBALDI REPUBBLICA", "info": "PALESTRA" }, "geometry": { "type": "Point", "coordinates": [ 9.1929449, 45.4838483 ] } },
{ "type": "Feature", "properties": { "Nome": "Tonic", "Indirizzo": "Via Giambellino 5", "Categories": "Gyms", "Average Star Rating": 4.0, "Review Count": 3, "Neighborhood": "Giambellino", "info": "PALESTRA" }, "geometry": { "type": "Point", "coordinates": [ 9.15285, 45.45183 ] } },
{ "type": "Feature", "properties": { "Nome": "Milanimal", "Indirizzo": "Via Lodovico Muratori 34", "Categories": "Martial Arts, Gyms", "Average Star Rating": 4.8, "Review Count": 4, "Neighborhood": "Porta Romana", "info": "PALESTRA" }, "geometry": { "type": "Point", "coordinates": [ 9.2097197, 45.4512901 ] } },
{ "type": "Feature", "properties": { "Nome": "Palestra Bocconi", "Indirizzo": "Via Bocconi 12", "Categories": "Gyms", "Average Star Rating": 4.0, "Review Count": 1, "Neighborhood": "Vigentina", "info": "PALESTRA" }, "geometry": { "type": "Point", "coordinates": [ 9.1903, 45.4496803 ] } },
{ "type": "Feature", "properties": { "Nome": "Virgin Active Cittàstudi", "Indirizzo": "Via Giovanni Antonio Amadeo 57", "Categories": "Gyms, Day Spas, Swimming Pools", "Average Star Rating": 3.4, "Review Count": 5, "Neighborhood": "Città Studi", "info": "PALESTRA" }, "geometry": { "type": "Point", "coordinates": [ 9.23769950866699, 45.4699953954661 ] } },
{ "type": "Feature", "properties": { "Nome": "GetFit", "Indirizzo": "Via Gian Battista Vico 38", "Categories": "Day Spas, Gyms, Swimming Pools", "Average Star Rating": 4.7, "Review Count": 3, "Neighborhood": "Magenta - San Vittore", "info": "PALESTRA" }, "geometry": { "type": "Point", "coordinates": [ 9.1671801, 45.4625702 ] } },
{ "type": "Feature", "properties": { "Nome": "Hard Candy Fitness", "Indirizzo": "Via Bronzino 15", "Categories": "Fitness & Instruction", "Average Star Rating": 5.0, "Review Count": 3, "Neighborhood": "Buenos Aires - Venezia", "info": "PALESTRA" }, "geometry": { "type": "Point", "coordinates": [ 9.21934, 45.4768 ] } },
{ "type": "Feature", "properties": { "Nome": "The Studio", "Indirizzo": "Via Conca del Naviglio 18", "Categories": "Pilates, Gyms", "Average Star Rating": 5.0, "Review Count": 2, "Neighborhood": "Ticinese", "info": "PALESTRA" }, "geometry": { "type": "Point", "coordinates": [ 9.17733669281006, 45.456993103027401 ] } },
{ "type": "Feature", "properties": { "Nome": "Aspria Harbour Club Milano", "Indirizzo": "Via Cascina Bellaria 19", "Categories": "Day Spas, Gyms, Tennis", "Average Star Rating": 4.8, "Review Count": 4, "Neighborhood": "Parco Bosco In Città", "info": "PALESTRA" }, "geometry": { "type": "Point", "coordinates": [ 9.1062238, 45.4802651 ] } },
{ "type": "Feature", "properties": { "Nome": "20Hours Club Sarpi", "Indirizzo": "Via Paolo Sarpi 8", "Categories": "Gyms", "Average Star Rating": 3.0, "Review Count": 2, "Neighborhood": "Sarpi", "info": "PALESTRA" }, "geometry": { "type": "Point", "coordinates": [ 9.1802049, 45.4818641 ] } },
{ "type": "Feature", "properties": { "Nome": "Virgin Active", "Indirizzo": "Corso Como 15", "Categories": "Gyms", "Average Star Rating": 2.9, "Review Count": 7, "Neighborhood": "GARIBALDI REPUBBLICA", "info": "PALESTRA" }, "geometry": { "type": "Point", "coordinates": [ 9.18723, 45.48259 ] } },
{ "type": "Feature", "properties": { "Nome": "Get Fit", "Indirizzo": "Via Piacenza 4", "Categories": "Gyms", "Average Star Rating": 4.3, "Review Count": 3, "Neighborhood": "Porta Romana", "info": "PALESTRA" }, "geometry": { "type": "Point", "coordinates": [ 9.2032093, 45.4488733 ] } },
{ "type": "Feature", "properties": { "Nome": "GetFit", "Indirizzo": "Via Falcone 5", "Categories": "Gyms, Dance Studios, Trainers", "Average Star Rating": 4.0, "Review Count": 1, "Neighborhood": "Duomo", "info": "PALESTRA" }, "geometry": { "type": "Point", "coordinates": [ 9.1878499, 45.46252 ] } },
{ "type": "Feature", "properties": { "Nome": "Palestre Italiane", "Indirizzo": "Viale Cassala 22", "Categories": "Gyms", "Average Star Rating": 3.3, "Review Count": 4, "Neighborhood": "Navigli", "info": "PALESTRA" }, "geometry": { "type": "Point", "coordinates": [ 9.16344, 45.44438 ] } },
{ "type": "Feature", "properties": { "Nome": "Virgin Active Kennedy", "Indirizzo": "Viale Alcide de Gasperi 2", "Categories": "Gyms", "Average Star Rating": 3.3, "Review Count": 4, "Neighborhood": "Maggiore - Musocco", "info": "PALESTRA" }, "geometry": { "type": "Point", "coordinates": [ 9.128598933457241, 45.496501217335698 ] } },
{ "type": "Feature", "properties": { "Nome": "Club 2D Fitness Village", "Indirizzo": "Viale Monza 119", "Categories": "Massage, Gyms, Swimming Pools", "Average Star Rating": 4.0, "Review Count": 1, "Neighborhood": "Loreto", "info": "PALESTRA" }, "geometry": { "type": "Point", "coordinates": [ 9.22018, 45.49829 ] } },
{ "type": "Feature", "properties": { "Nome": "Goal Fitness", "Indirizzo": "Via Mecenate 76/16", "Categories": "Gyms", "Average Star Rating": 0.0, "Review Count": 0, "Neighborhood": "Mecenate", "info": "PALESTRA" }, "geometry": { "type": "Point", "coordinates": [ 9.24633, 45.45124 ] } },
{ "type": "Feature", "properties": { "Nome": "20 Hours Club", "Indirizzo": "Via Rubens 19", "Categories": "Gyms", "Average Star Rating": 4.0, "Review Count": 1, "Neighborhood": "Bande Nere", "info": "PALESTRA" }, "geometry": { "type": "Point", "coordinates": [ 9.14353787899017, 45.4671251717592 ] } },
{ "type": "Feature", "properties": { "Nome": "Kiné Fitness Corner", "Indirizzo": "Via Andrea Palladio 26", "Categories": "Trainers, Gyms, Pilates", "Average Star Rating": 5.0, "Review Count": 2, "Neighborhood": "Porta Romana", "info": "PALESTRA" }, "geometry": { "type": "Point", "coordinates": [ 9.201162547329661, 45.447123802196003 ] } },
{ "type": "Feature", "properties": { "Nome": "La Wellness", "Indirizzo": "Via Tagliamento 19", "Categories": "Fitness & Instruction, Swimming Pools", "Average Star Rating": 3.7, "Review Count": 3, "Neighborhood": "Lodi - Corvetto", "info": "PALESTRA" }, "geometry": { "type": "Point", "coordinates": [ 9.21365, 45.44361 ] } },
{ "type": "Feature", "properties": { "Nome": "CrossFit Bicocca", "Indirizzo": "Via Talete 9", "Categories": "Gyms, Trainers", "Average Star Rating": 4.7, "Review Count": 3, "Neighborhood": "Viale Monza", "info": "PALESTRA" }, "geometry": { "type": "Point", "coordinates": [ 9.23041, 45.52159 ] } },
{ "type": "Feature", "properties": { "Nome": "Palestra Venice", "Indirizzo": "Via Derganino, 18", "Categories": "Gyms", "Average Star Rating": 3.5, "Review Count": 2, "Neighborhood": "Bovisa", "info": "PALESTRA" }, "geometry": { "type": "Point", "coordinates": [ 9.1694, 45.50095 ] } },
{ "type": "Feature", "properties": { "Nome": "20 Hours", "Indirizzo": "Via Liguria 46", "Categories": "Swimming Pools, Gyms", "Average Star Rating": 2.0, "Review Count": 6, "Neighborhood": "Navigli", "info": "PALESTRA" }, "geometry": { "type": "Point", "coordinates": [ 9.17478, 45.44355 ] } },
{ "type": "Feature", "properties": { "Nome": "Tonic", "Indirizzo": "Via Oglio 21", "Categories": "Gyms", "Average Star Rating": 1.7, "Review Count": 3, "Neighborhood": "Lodi - Corvetto", "info": "PALESTRA" }, "geometry": { "type": "Point", "coordinates": [ 9.219663664698601, 45.440840323517499 ] } },
{ "type": "Feature", "properties": { "Nome": "Sportsman Club 1", "Indirizzo": "Via Ippolito Rosellini 14", "Categories": "Gyms, Sports Clubs", "Average Star Rating": 3.5, "Review Count": 2, "Neighborhood": "Isola", "info": "PALESTRA" }, "geometry": { "type": "Point", "coordinates": [ 9.1946262723449, 45.4893719653357 ] } },
{ "type": "Feature", "properties": { "Nome": "Fitness Barre Studio", "Indirizzo": "Via Legnone 15", "Categories": "Pilates, Trainers, Yoga", "Average Star Rating": 0.0, "Review Count": 0, "Neighborhood": "Dergano", "info": "PALESTRA" }, "geometry": { "type": "Point", "coordinates": [ 9.18154, 45.49868 ] } },
{ "type": "Feature", "properties": { "Nome": "Fit Express", "Indirizzo": "Viale Andrea Doria 17", "Categories": "Gyms, Trainers", "Average Star Rating": 3.0, "Review Count": 3, "Neighborhood": "Buenos Aires - Venezia", "info": "PALESTRA" }, "geometry": { "type": "Point", "coordinates": [ 9.212236034060981, 45.485714170308803 ] } },
{ "type": "Feature", "properties": { "Nome": "Leoni Sport", "Indirizzo": "Via Giorgio Washington 94", "Categories": "Shoe Stores, Sports Wear, Fitness & Instruction", "Average Star Rating": 3.3, "Review Count": 3, "Neighborhood": "Washington", "info": "PALESTRA" }, "geometry": { "type": "Point", "coordinates": [ 9.15442, 45.45666 ] } },
{ "type": "Feature", "properties": { "Nome": "Sportsman Club", "Indirizzo": "Via Tommaso Salvini 1", "Categories": "Gyms", "Average Star Rating": 0.0, "Review Count": 0, "Neighborhood": "Guastalla", "info": "PALESTRA" }, "geometry": { "type": "Point", "coordinates": [ 9.20299548, 45.47213638 ] } },
{ "type": "Feature", "properties": { "Nome": "Crossfit M1", "Indirizzo": "Via Legnone 54", "Categories": "Gyms", "Average Star Rating": 0.0, "Review Count": 0, "Neighborhood": "Dergano", "info": "PALESTRA" }, "geometry": { "type": "Point", "coordinates": [ 9.18073, 45.50191 ] } },
{ "type": "Feature", "properties": { "Nome": "Sport Prevenzione e Salute", "Indirizzo": "Via Pellegrino Rossi 88", "Categories": "Fitness & Instruction", "Average Star Rating": 3.7, "Review Count": 3, "Neighborhood": "Affori", "info": "PALESTRA" }, "geometry": { "type": "Point", "coordinates": [ 9.17325, 45.51469 ] } },
{ "type": "Feature", "properties": { "Nome": "Solaris Fitness", "Indirizzo": "Via Andrea Solari, 14", "Categories": "Gyms", "Average Star Rating": 3.0, "Review Count": 1, "Neighborhood": "Tortona", "info": "PALESTRA" }, "geometry": { "type": "Point", "coordinates": [ 9.16353, 45.45565 ] } },
{ "type": "Feature", "properties": { "Nome": "Barry’s", "Indirizzo": "Via Senato 36", "Categories": "Boot Camps, Gyms, Trainers", "Average Star Rating": 0.0, "Review Count": 0, "Neighborhood": "Guastalla", "info": "PALESTRA" }, "geometry": { "type": "Point", "coordinates": [ 9.1957401, 45.471977 ] } },
{ "type": "Feature", "properties": { "Nome": "Get Fit Club", "Indirizzo": "Via Piacenza 2", "Categories": "Gyms, Swimming Pools, Day Spas", "Average Star Rating": 4.0, "Review Count": 1, "Neighborhood": "Porta Romana", "info": "PALESTRA" }, "geometry": { "type": "Point", "coordinates": [ 9.20297079, 45.44880768 ] } },
{ "type": "Feature", "properties": { "Nome": "Pole Dancing Academy", "Indirizzo": "Via Termopili 25", "Categories": "Pilates, Dance Studios", "Average Star Rating": 0.0, "Review Count": 0, "Neighborhood": "Loreto", "info": "PALESTRA" }, "geometry": { "type": "Point", "coordinates": [ 9.22003291530357, 45.492426767244098 ] } },
{ "type": "Feature", "properties": { "Nome": "GetFIT", "Indirizzo": "Viale Stelvio 65", "Categories": "Gyms", "Average Star Rating": 3.7, "Review Count": 3, "Neighborhood": "Farini", "info": "PALESTRA" }, "geometry": { "type": "Point", "coordinates": [ 9.18168, 45.49537 ] } },
{ "type": "Feature", "properties": { "Nome": "Accademia Europea", "Indirizzo": "Via Melzo, 9", "Categories": "Fitness & Instruction", "Average Star Rating": 5.0, "Review Count": 1, "Neighborhood": "Buenos Aires - Venezia", "info": "PALESTRA" }, "geometry": { "type": "Point", "coordinates": [ 9.20943, 45.47343 ] } },
{ "type": "Feature", "properties": { "Nome": "AcquaGo", "Indirizzo": "Piazzale Biancamano 1", "Categories": "Fitness & Instruction", "Average Star Rating": 1.0, "Review Count": 1, "Neighborhood": "Sarpi", "info": "PALESTRA" }, "geometry": { "type": "Point", "coordinates": [ 9.18071195, 45.47815673 ] } },
{ "type": "Feature", "properties": { "Nome": "Studio 51", "Indirizzo": "Via Bernardino Telesio 11", "Categories": "Massage, Gyms", "Average Star Rating": 5.0, "Review Count": 1, "Neighborhood": "Pagano", "info": "PALESTRA" }, "geometry": { "type": "Point", "coordinates": [ 9.1643333, 45.4693262 ] } },
{ "type": "Feature", "properties": { "Nome": "Get Fit", "Indirizzo": "Via Cagliero 14", "Categories": "Fitness & Instruction, Sports Clubs, Swimming Pools", "Average Star Rating": 4.0, "Review Count": 2, "Neighborhood": "Maciachini - Maggiolina", "info": "PALESTRA" }, "geometry": { "type": "Point", "coordinates": [ 9.2027691, 45.49602628 ] } },
{ "type": "Feature", "properties": { "Nome": "GetFit", "Indirizzo": "Via Lambrate 20", "Categories": "Gyms", "Average Star Rating": 5.0, "Review Count": 1, "Neighborhood": "Loreto", "info": "PALESTRA" }, "geometry": { "type": "Point", "coordinates": [ 9.22546, 45.49016 ] } },
{ "type": "Feature", "properties": { "Nome": "20 Hours Club", "Indirizzo": "Via Tolstoj 59", "Categories": "Gyms", "Average Star Rating": 3.0, "Review Count": 1, "Neighborhood": "Bande Nere", "info": "PALESTRA" }, "geometry": { "type": "Point", "coordinates": [ 9.14817813463654, 45.455177968015299 ] } },
{ "type": "Feature", "properties": { "Nome": "Palestra Santomasosei di Arienta Manuela", "Indirizzo": "Via SAN Tommaso, 6", "Categories": "Fitness & Instruction", "Average Star Rating": 0.0, "Review Count": 0, "Neighborhood": "Brera", "info": "PALESTRA" }, "geometry": { "type": "Point", "coordinates": [ 9.18481, 45.46729 ] } },
{ "type": "Feature", "properties": { "Nome": "Miltronic", "Indirizzo": "Piazza degli Affari 3", "Categories": "Gyms, Trainers, Pilates", "Average Star Rating": 0.0, "Review Count": 0, "Neighborhood": "Duomo", "info": "PALESTRA" }, "geometry": { "type": "Point", "coordinates": [ 9.18285, 45.4647 ] } },
{ "type": "Feature", "properties": { "Nome": "Sportsman Club", "Indirizzo": "Via Cosimo Del Fante 10", "Categories": "Gyms", "Average Star Rating": 4.0, "Review Count": 1, "Neighborhood": "Ticinese", "info": "PALESTRA" }, "geometry": { "type": "Point", "coordinates": [ 9.18582030098036, 45.455410819655597 ] } },
{ "type": "Feature", "properties": { "Nome": "Romans Club", "Indirizzo": "Corso Sempione 30", "Categories": "Massage, Gyms, Day Spas", "Average Star Rating": 4.0, "Review Count": 2, "Neighborhood": "Sarpi", "info": "PALESTRA" }, "geometry": { "type": "Point", "coordinates": [ 9.16759998, 45.47983468 ] } },
{ "type": "Feature", "properties": { "Nome": "Studio Rebirth", "Indirizzo": "Via Pellegrino Rossi 57", "Categories": "Osteopathic Physicians, Trainers", "Average Star Rating": 5.0, "Review Count": 1, "Neighborhood": "Affori", "info": "PALESTRA" }, "geometry": { "type": "Point", "coordinates": [ 9.1751799, 45.51145 ] } },
{ "type": "Feature", "properties": { "Nome": "GetFit", "Indirizzo": "via Meda 52", "Categories": "Gyms", "Average Star Rating": 2.5, "Review Count": 2, "Neighborhood": "Tibaldi", "info": "PALESTRA" }, "geometry": { "type": "Point", "coordinates": [ 9.1782703, 45.438591 ] } },
{ "type": "Feature", "properties": { "Nome": "FitActive", "Indirizzo": "Via Giancarlo Sismondi 43", "Categories": "Gyms", "Average Star Rating": 1.0, "Review Count": 1, "Neighborhood": "Corsica", "info": "PALESTRA" }, "geometry": { "type": "Point", "coordinates": [ 9.23107, 45.46566 ] } },
{ "type": "Feature", "properties": { "Nome": "Fitness World", "Indirizzo": "Via Bordighera 43", "Categories": "Gyms", "Average Star Rating": 0.0, "Review Count": 0, "Neighborhood": "Tibaldi", "info": "PALESTRA" }, "geometry": { "type": "Point", "coordinates": [ 9.17379, 45.43889 ] } },
{ "type": "Feature", "properties": { "Nome": "Centro Sportivo Pro Patria", "Indirizzo": "Viale Sarca 205", "Categories": "Sports Clubs, Fitness & Instruction, Playgrounds", "Average Star Rating": 0.0, "Review Count": 0, "Neighborhood": "Bicocca", "info": "PALESTRA" }, "geometry": { "type": "Point", "coordinates": [ 9.21033, 45.51879 ] } },
{ "type": "Feature", "properties": { "Nome": "Judo Club Dojo Jigoro Kano", "Indirizzo": "Via Raimondo Montecuccoli 33", "Categories": "Gyms", "Average Star Rating": 5.0, "Review Count": 1, "Neighborhood": "Bande Nere", "info": "PALESTRA" }, "geometry": { "type": "Point", "coordinates": [ 9.1345322, 45.4595444 ] } },
{ "type": "Feature", "properties": { "Nome": "YouFit Palestre", "Indirizzo": "Via Bergamo 4", "Categories": "Gyms, Trainers, Yoga", "Average Star Rating": 2.3, "Review Count": 4, "Neighborhood": "XXII Marzo", "info": "PALESTRA" }, "geometry": { "type": "Point", "coordinates": [ 9.20625686645508, 45.457462310791001 ] } },
{ "type": "Feature", "properties": { "Nome": "Reverbia", "Indirizzo": "Via Amedei 6", "Categories": "Trainers, Pilates, Gyms", "Average Star Rating": 0.0, "Review Count": 0, "Neighborhood": "Duomo", "info": "PALESTRA" }, "geometry": { "type": "Point", "coordinates": [ 9.18684, 45.45932 ] } },
{ "type": "Feature", "properties": { "Nome": "Sangym", "Indirizzo": "Via Privata San Romanello 83", "Categories": "Gyms, Pole Dancing Classes, Pilates", "Average Star Rating": 0.0, "Review Count": 0, "Neighborhood": "Quinto Romano", "info": "PALESTRA" }, "geometry": { "type": "Point", "coordinates": [ 9.08902, 45.48225 ] } },
{ "type": "Feature", "properties": { "Nome": "Accadueò Club", "Indirizzo": "viale Lucania, 27", "Categories": "Fitness & Instruction", "Average Star Rating": 3.0, "Review Count": 1, "Neighborhood": "Lodi - Corvetto", "info": "PALESTRA" }, "geometry": { "type": "Point", "coordinates": [ 9.22386, 45.44308 ] } },
{ "type": "Feature", "properties": { "Nome": "Health City", "Indirizzo": "Viale Certosa 21A", "Categories": "Gyms", "Average Star Rating": 3.3, "Review Count": 3, "Neighborhood": "Portello", "info": "PALESTRA" }, "geometry": { "type": "Point", "coordinates": [ 9.1525898, 45.4892883 ] } },
{ "type": "Feature", "properties": { "Nome": "Palestre Open Club", "Indirizzo": "Via Simone D'orsenigo, 23", "Categories": "Fitness & Instruction", "Average Star Rating": 0.0, "Review Count": 0, "Neighborhood": "XXII Marzo", "info": "PALESTRA" }, "geometry": { "type": "Point", "coordinates": [ 9.21503, 45.4553299 ] } },
{ "type": "Feature", "properties": { "Nome": "YouFit", "Indirizzo": "Viale Abruzzi 38", "Categories": "Gyms, Trainers, Yoga", "Average Star Rating": 0.0, "Review Count": 0, "Neighborhood": "Buenos Aires - Venezia", "info": "PALESTRA" }, "geometry": { "type": "Point", "coordinates": [ 9.21737, 45.478981 ] } },
{ "type": "Feature", "properties": { "Nome": "Associazione Shin WA Club", "Indirizzo": "Via Luigi Settembrini, 52", "Categories": "Massage, Fitness & Instruction", "Average Star Rating": 0.0, "Review Count": 0, "Neighborhood": "Buenos Aires - Venezia", "info": "PALESTRA" }, "geometry": { "type": "Point", "coordinates": [ 9.20857, 45.48406 ] } },
{ "type": "Feature", "properties": { "Nome": "CrossFit Lambrate", "Indirizzo": "Via Privata Oslavia 1", "Categories": "Gyms", "Average Star Rating": 0.0, "Review Count": 0, "Neighborhood": "Lambrate", "info": "PALESTRA" }, "geometry": { "type": "Point", "coordinates": [ 9.24563, 45.48176 ] } },
{ "type": "Feature", "properties": { "Nome": "Sportsman Club 4", "Indirizzo": "via Monte Nevoso, 17", "Categories": "Fitness & Instruction", "Average Star Rating": 4.0, "Review Count": 1, "Neighborhood": "Loreto", "info": "PALESTRA" }, "geometry": { "type": "Point", "coordinates": [ 9.23403, 45.48763 ] } },
{ "type": "Feature", "properties": { "Nome": "Downtown SPA & Beauty", "Indirizzo": "C. Vittorio Emanuele II, ", "Categories": "Fitness & Instruction", "Average Star Rating": 0.0, "Review Count": 0, "Neighborhood": "Duomo", "info": "PALESTRA" }, "geometry": { "type": "Point", "coordinates": [ 9.19411, 45.46503 ] } },
{ "type": "Feature", "properties": { "Nome": "Studio Pilates", "Indirizzo": "Corso Concordia 11", "Categories": "Pilates", "Average Star Rating": 5.0, "Review Count": 1, "Neighborhood": "Buenos Aires - Venezia", "info": "PALESTRA" }, "geometry": { "type": "Point", "coordinates": [ 9.209912, 45.468172 ] } },
{ "type": "Feature", "properties": { "Nome": "Palestra ICOS", "Indirizzo": "Via Pirandello Luigi 4A", "Categories": "Gyms", "Average Star Rating": 0.0, "Review Count": 0, "Neighborhood": "Washington", "info": "PALESTRA" }, "geometry": { "type": "Point", "coordinates": [ 9.15690132805358, 45.463383647577899 ] } },
{ "type": "Feature", "properties": { "Nome": "Palestra L'Arca", "Indirizzo": "Piazza Santa Maria del Suffragio 23", "Categories": "Gyms", "Average Star Rating": 5.0, "Review Count": 1, "Neighborhood": "XXII Marzo", "info": "PALESTRA" }, "geometry": { "type": "Point", "coordinates": [ 9.2124509546786, 45.462440652518097 ] } },
{ "type": "Feature", "properties": { "Nome": "Studio Shanti", "Indirizzo": "Piazza dei Daini 3", "Categories": "Yoga", "Average Star Rating": 5.0, "Review Count": 1, "Neighborhood": "Bicocca", "info": "PALESTRA" }, "geometry": { "type": "Point", "coordinates": [ 9.2105736, 45.5155262 ] } },
{ "type": "Feature", "properties": { "Nome": "Pure", "Indirizzo": "Via Borgogna 5", "Categories": "Gyms", "Average Star Rating": 0.0, "Review Count": 0, "Neighborhood": "Duomo", "info": "PALESTRA" }, "geometry": { "type": "Point", "coordinates": [ 9.1989498, 45.4659195 ] } },
{ "type": "Feature", "properties": { "Nome": "Tra Cielo e Terra", "Indirizzo": "Viale Zara 9", "Categories": "Martial Arts, Yoga", "Average Star Rating": 2.8, "Review Count": 5, "Neighborhood": "Isola", "info": "PALESTRA" }, "geometry": { "type": "Point", "coordinates": [ 9.19147, 45.49089 ] } },
{ "type": "Feature", "properties": { "Nome": "Urban Fitness", "Indirizzo": "Viale Sabotino 20", "Categories": "Boot Camps", "Average Star Rating": 0.0, "Review Count": 0, "Neighborhood": "Porta Romana", "info": "PALESTRA" }, "geometry": { "type": "Point", "coordinates": [ 9.201077297329901, 45.4508065357238 ] } },
{ "type": "Feature", "properties": { "Nome": "Fit Star", "Indirizzo": "Corso Sempione 65A", "Categories": "Gyms", "Average Star Rating": 0.0, "Review Count": 0, "Neighborhood": "Portello", "info": "PALESTRA" }, "geometry": { "type": "Point", "coordinates": [ 9.16020407310668, 45.484143981489296 ] } },
{ "type": "Feature", "properties": { "Nome": "Civilla / Claudio", "Indirizzo": "Via Palmaria, 6", "Categories": "Fitness & Instruction", "Average Star Rating": 0.0, "Review Count": 0, "Neighborhood": "Affori", "info": "PALESTRA" }, "geometry": { "type": "Point", "coordinates": [ 9.17739, 45.51437 ] } },
{ "type": "Feature", "properties": { "Nome": "GetFit", "Indirizzo": "Via Cenisio 10", "Categories": "Gyms", "Average Star Rating": 0.0, "Review Count": 0, "Neighborhood": "Ghisolfa", "info": "PALESTRA" }, "geometry": { "type": "Point", "coordinates": [ 9.17068, 45.48771 ] } },
{ "type": "Feature", "properties": { "Nome": "Keysi Milano City", "Indirizzo": "Via Armenia 7", "Categories": "Martial Arts, Gyms, Trainers", "Average Star Rating": 5.0, "Review Count": 1, "Neighborhood": "Villapizzone", "info": "PALESTRA" }, "geometry": { "type": "Point", "coordinates": [ 9.148563385009769, 45.490478515625 ] } },
{ "type": "Feature", "properties": { "Nome": "Acerbi Soc. Sportiva Dilettantistica", "Indirizzo": "Via E. Acerbi, 34", "Categories": "Fitness & Instruction", "Average Star Rating": 0.0, "Review Count": 0, "Neighborhood": "Bruzzano", "info": "PALESTRA" }, "geometry": { "type": "Point", "coordinates": [ 9.1750399, 45.52888 ] } },
{ "type": "Feature", "properties": { "Nome": "Fitness First Italia", "Indirizzo": "Viale Certosa, 21", "Categories": "Fitness & Instruction", "Average Star Rating": 0.0, "Review Count": 0, "Neighborhood": "Portello", "info": "PALESTRA" }, "geometry": { "type": "Point", "coordinates": [ 9.15271, 45.4892899 ] } },
{ "type": "Feature", "properties": { "Nome": "Virgin Active", "Indirizzo": "Via Carlo Imbonati 24A", "Categories": "Gyms, Trainers, Pilates", "Average Star Rating": 2.0, "Review Count": 1, "Neighborhood": "Dergano", "info": "PALESTRA" }, "geometry": { "type": "Point", "coordinates": [ 9.182671308517859, 45.502155920406302 ] } },
{ "type": "Feature", "properties": { "Nome": "Total Natural Training", "Indirizzo": "Via Val Maira", "Categories": "Gyms, Boxing", "Average Star Rating": 0.0, "Review Count": 0, "Neighborhood": "Niguarda - Cà Granda", "info": "PALESTRA" }, "geometry": { "type": "Point", "coordinates": [ 9.194460909666351, 45.509413972376798 ] } },
{ "type": "Feature", "properties": { "Nome": "Polisportiva Lombardia 1", "Indirizzo": "Via Luigi Ornato, 90/10", "Categories": "Fitness & Instruction", "Average Star Rating": 0.0, "Review Count": 0, "Neighborhood": "Niguarda - Cà Granda", "info": "PALESTRA" }, "geometry": { "type": "Point", "coordinates": [ 9.19121, 45.51554 ] } },
{ "type": "Feature", "properties": { "Nome": "Gens D'Ys", "Indirizzo": "Via Simone Schiaffino 3", "Categories": "Dance Studios", "Average Star Rating": 5.0, "Review Count": 1, "Neighborhood": "Bovisa", "info": "PALESTRA" }, "geometry": { "type": "Point", "coordinates": [ 9.16426, 45.50551 ] } },
{ "type": "Feature", "properties": { "Nome": "Riccardo la Ferrara", "Indirizzo": "Viale Sarca 232", "Categories": "Trainers, Gyms", "Average Star Rating": 0.0, "Review Count": 0, "Neighborhood": "Bicocca", "info": "PALESTRA" }, "geometry": { "type": "Point", "coordinates": [ 9.216405, 45.521326 ] } },
{ "type": "Feature", "properties": { "Nome": "A.S.D. Alex Club", "Indirizzo": "Via Privata Mottarone, 2", "Categories": "Gyms", "Average Star Rating": 4.0, "Review Count": 1, "Neighborhood": "Villapizzone", "info": "PALESTRA" }, "geometry": { "type": "Point", "coordinates": [ 9.1569, 45.49404 ] } },
{ "type": "Feature", "properties": { "Nome": "A.s.bulldogs'gym", "Indirizzo": "Via Luigi Pasteur 19", "Categories": "Gyms", "Average Star Rating": 0.0, "Review Count": 0, "Neighborhood": "Loreto", "info": "PALESTRA" }, "geometry": { "type": "Point", "coordinates": [ 9.21902, 45.48991 ] } },
{ "type": "Feature", "properties": { "Nome": "Palestra Leomidias", "Indirizzo": "Via Apelle, 38", "Categories": "Fitness & Instruction", "Average Star Rating": 0.0, "Review Count": 0, "Neighborhood": "Viale Monza", "info": "PALESTRA" }, "geometry": { "type": "Point", "coordinates": [ 9.227, 45.50852 ] } },
{ "type": "Feature", "properties": { "Nome": "La Tartuca", "Indirizzo": "Via Varesina 19", "Categories": "Recreation Centers, Dance Studios, Adult Education", "Average Star Rating": 4.5, "Review Count": 2, "Neighborhood": "Villapizzone", "info": "PALESTRA" }, "geometry": { "type": "Point", "coordinates": [ 9.14816, 45.4946399 ] } },
{ "type": "Feature", "properties": { "Nome": "AS NEW Gymnika", "Indirizzo": "Via Rucellai Bernardo, 20", "Categories": "Fitness & Instruction", "Average Star Rating": 0.0, "Review Count": 0, "Neighborhood": "Viale Monza", "info": "PALESTRA" }, "geometry": { "type": "Point", "coordinates": [ 9.22085, 45.5122799 ] } },
{ "type": "Feature", "properties": { "Nome": "Studio di Chinesiologia di Agosta Fabio", "Indirizzo": "Via Aristotele, 39", "Categories": "Fitness & Instruction", "Average Star Rating": 0.0, "Review Count": 0, "Neighborhood": "Viale Monza", "info": "PALESTRA" }, "geometry": { "type": "Point", "coordinates": [ 9.22481, 45.50781 ] } },
{ "type": "Feature", "properties": { "Nome": "Associazione Culturale Kwoon Kung FU", "Indirizzo": "Via Apelle, 8", "Categories": "Chinese Martial Arts", "Average Star Rating": 0.0, "Review Count": 0, "Neighborhood": "Viale Monza", "info": "PALESTRA" }, "geometry": { "type": "Point", "coordinates": [ 9.22733, 45.50622 ] } },
{ "type": "Feature", "properties": { "Nome": "Judo Samurai", "Indirizzo": "Via Enrico Cialdini 107", "Categories": "Martial Arts, Gyms", "Average Star Rating": 0.0, "Review Count": 0, "Neighborhood": "Affori", "info": "PALESTRA" }, "geometry": { "type": "Point", "coordinates": [ 9.16945, 45.515 ] } },
{ "type": "Feature", "properties": { "Nome": "Training Center", "Indirizzo": "Via Bitti Romolo, 10", "Categories": "Fitness & Instruction", "Average Star Rating": 0.0, "Review Count": 0, "Neighborhood": "Greco", "info": "PALESTRA" }, "geometry": { "type": "Point", "coordinates": [ 9.20135, 45.50597 ] } },
{ "type": "Feature", "properties": { "Nome": "Associazione Sportiva Dilettantistica Judo Club Prato Milano", "Indirizzo": "Via Pianell Salvatore, 22", "Categories": "Fitness & Instruction", "Average Star Rating": 0.0, "Review Count": 0, "Neighborhood": "Greco", "info": "PALESTRA" }, "geometry": { "type": "Point", "coordinates": [ 9.205, 45.5071 ] } },
{ "type": "Feature", "properties": { "Nome": "Funakoshi Club ASS", "Indirizzo": "PLE Nizza, 5", "Categories": "Fitness & Instruction", "Average Star Rating": 0.0, "Review Count": 0, "Neighborhood": "Maciachini - Maggiolina", "info": "PALESTRA" }, "geometry": { "type": "Point", "coordinates": [ 9.18839, 45.50331 ] } },
{ "type": "Feature", "properties": { "Nome": "Centro Accademico Rino Fenaroli", "Indirizzo": "Viale Giovanni Suzzani 279", "Categories": "Gyms", "Average Star Rating": 0.0, "Review Count": 0, "Neighborhood": "Niguarda - Cà Granda", "info": "PALESTRA" }, "geometry": { "type": "Point", "coordinates": [ 9.2088699, 45.52679 ] } },
{ "type": "Feature", "properties": { "Nome": "Ponzo / Gilda", "Indirizzo": "Via Arrivabene Giovanni, 15", "Categories": "Fitness & Instruction", "Average Star Rating": 0.0, "Review Count": 0, "Neighborhood": "Bovisa", "info": "PALESTRA" }, "geometry": { "type": "Point", "coordinates": [ 9.16666, 45.49931 ] } },
{ "type": "Feature", "properties": { "Nome": "Pirelli & C", "Indirizzo": "Viale Sarca 336", "Categories": "Cinema, Pizza, Fitness & Instruction", "Average Star Rating": 0.0, "Review Count": 0, "Neighborhood": "Bicocca", "info": "PALESTRA" }, "geometry": { "type": "Point", "coordinates": [ 9.21464, 45.5257099 ] } },
{ "type": "Feature", "properties": { "Nome": "Societa' Ginnastica Milano 2000", "Indirizzo": "Via Adele Martignoni 1A", "Categories": "Gyms", "Average Star Rating": 5.0, "Review Count": 1, "Neighborhood": "Maciachini - Maggiolina", "info": "PALESTRA" }, "geometry": { "type": "Point", "coordinates": [ 9.1958902, 45.4919306 ] } },
{ "type": "Feature", "properties": { "Nome": "Idea Sport Pallacanestro", "Indirizzo": "Via Brivio, 1", "Categories": "Fitness & Instruction", "Average Star Rating": 0.0, "Review Count": 0, "Neighborhood": "Villapizzone", "info": "PALESTRA" }, "geometry": { "type": "Point", "coordinates": [ 9.14344, 45.50283 ] } },
{ "type": "Feature", "properties": { "Nome": "Best Price", "Indirizzo": "Via Piero della Francesca 32", "Categories": "Gyms", "Average Star Rating": 0.0, "Review Count": 0, "Neighborhood": "Sarpi", "info": "PALESTRA" }, "geometry": { "type": "Point", "coordinates": [ 9.1644297, 45.4836502 ] } },
{ "type": "Feature", "properties": { "Nome": "Centro Sportivo Cristal", "Indirizzo": "Via Ampere, 122", "Categories": "Sports Clubs, Fitness & Instruction", "Average Star Rating": 0.0, "Review Count": 0, "Neighborhood": "Loreto", "info": "PALESTRA" }, "geometry": { "type": "Point", "coordinates": [ 9.22653, 45.48804 ] } },
{ "type": "Feature", "properties": { "Nome": "La Valle di REN Riequilibrio Energetico Naturale / Roberto", "Indirizzo": "Via Aristotele, 67", "Categories": "Fitness & Instruction", "Average Star Rating": 0.0, "Review Count": 0, "Neighborhood": "Viale Monza", "info": "PALESTRA" }, "geometry": { "type": "Point", "coordinates": [ 9.2254799, 45.51007 ] } },
{ "type": "Feature", "properties": { "Nome": "Associazione Sportiva WU SHU Kuan", "Indirizzo": "Viale Certosa, 181", "Categories": "Fitness & Instruction", "Average Star Rating": 0.0, "Review Count": 0, "Neighborhood": "Villapizzone", "info": "PALESTRA" }, "geometry": { "type": "Point", "coordinates": [ 9.13466, 45.49747 ] } },
{ "type": "Feature", "properties": { "Nome": "YouFit", "Indirizzo": "Via Ippolito Rosellini 10", "Categories": "Gyms", "Average Star Rating": 2.0, "Review Count": 2, "Neighborhood": "Isola", "info": "PALESTRA" }, "geometry": { "type": "Point", "coordinates": [ 9.1943998, 45.4891586 ] } },
{ "type": "Feature", "properties": { "Nome": "Rovereto House & L@B", "Indirizzo": "Via Rovereto 10", "Categories": "Tai Chi, Pilates, Yoga", "Average Star Rating": 0.0, "Review Count": 0, "Neighborhood": "Loreto", "info": "PALESTRA" }, "geometry": { "type": "Point", "coordinates": [ 9.22015, 45.49491 ] } },
{ "type": "Feature", "properties": { "Nome": "Pugilato Bovisa", "Indirizzo": "Via Camillo Ugoni 15", "Categories": "Boxing", "Average Star Rating": 0.0, "Review Count": 0, "Neighborhood": "Bovisa", "info": "PALESTRA" }, "geometry": { "type": "Point", "coordinates": [ 9.17097, 45.50063 ] } },
{ "type": "Feature", "properties": { "Nome": "Societa Sportiva Milano 2000 Societa Sportiva Dilettantistica", "Indirizzo": "Via Cagliero Giovanni, 14", "Categories": "Fitness & Instruction", "Average Star Rating": 0.0, "Review Count": 0, "Neighborhood": "Maciachini - Maggiolina", "info": "PALESTRA" }, "geometry": { "type": "Point", "coordinates": [ 9.20272, 45.49597 ] } },
{ "type": "Feature", "properties": { "Nome": "Tonic", "Indirizzo": "Via Giulio Cesare Procaccini 36", "Categories": "Gyms, Trainers", "Average Star Rating": 1.0, "Review Count": 1, "Neighborhood": "Sarpi", "info": "PALESTRA" }, "geometry": { "type": "Point", "coordinates": [ 9.16972, 45.48322 ] } },
{ "type": "Feature", "properties": { "Nome": "Passaggio Obbligato", "Indirizzo": "Via degli Imbriani 17", "Categories": "Fitness & Instruction, Climbing", "Average Star Rating": 3.5, "Review Count": 2, "Neighborhood": "Bovisa", "info": "PALESTRA" }, "geometry": { "type": "Point", "coordinates": [ 9.16994, 45.49792 ] } },
{ "type": "Feature", "properties": { "Nome": "Reikan Karate Club Associazione Sportiva", "Indirizzo": "Via Masolino DA Panicale, 9", "Categories": "Karate", "Average Star Rating": 0.0, "Review Count": 0, "Neighborhood": "Villapizzone", "info": "PALESTRA" }, "geometry": { "type": "Point", "coordinates": [ 9.1516, 45.49358 ] } },
{ "type": "Feature", "properties": { "Nome": "Funakoshi Club Ass", "Indirizzo": "Piazzale Nizza 5", "Categories": "Gyms", "Average Star Rating": 0.0, "Review Count": 0, "Neighborhood": "Maciachini - Maggiolina", "info": "PALESTRA" }, "geometry": { "type": "Point", "coordinates": [ 9.1883581, 45.5036274 ] } },
{ "type": "Feature", "properties": { "Nome": "Fuori di Danza", "Indirizzo": "Via Gallarate 50", "Categories": "Dance Studios", "Average Star Rating": 4.0, "Review Count": 1, "Neighborhood": "Villapizzone", "info": "PALESTRA" }, "geometry": { "type": "Point", "coordinates": [ 9.13770303027694, 45.495089988765798 ] } },
{ "type": "Feature", "properties": { "Nome": "Systema Milano", "Indirizzo": "Via Apelle 8", "Categories": "Martial Arts, Sports Psychologists", "Average Star Rating": 0.0, "Review Count": 0, "Neighborhood": "Viale Monza", "info": "PALESTRA" }, "geometry": { "type": "Point", "coordinates": [ 9.227336, 45.506196 ] } },
{ "type": "Feature", "properties": { "Nome": "Academia de Capoeira Mestre Baixinho", "Indirizzo": "Via Angelo della Pergola 15", "Categories": "Martial Arts", "Average Star Rating": 4.0, "Review Count": 1, "Neighborhood": "Isola", "info": "PALESTRA" }, "geometry": { "type": "Point", "coordinates": [ 9.1857647, 45.488359 ] } },
{ "type": "Feature", "properties": { "Nome": "Nonsolodanza", "Indirizzo": "Via Pastrengo 16", "Categories": "Dance Studios", "Average Star Rating": 0.0, "Review Count": 0, "Neighborhood": "Isola", "info": "PALESTRA" }, "geometry": { "type": "Point", "coordinates": [ 9.18567, 45.4867599 ] } },
{ "type": "Feature", "properties": { "Nome": "Terzi / Mara", "Indirizzo": "Via Giovanni Battista Fauche', 9", "Categories": "Dance Studios", "Average Star Rating": 0.0, "Review Count": 0, "Neighborhood": "Sarpi", "info": "PALESTRA" }, "geometry": { "type": "Point", "coordinates": [ 9.16536, 45.48459 ] } },
{ "type": "Feature", "properties": { "Nome": "Tennis Master", "Indirizzo": "Via Giuseppe Govone 67", "Categories": "Gyms, Sports Clubs", "Average Star Rating": 0.0, "Review Count": 0, "Neighborhood": "Ghisolfa", "info": "PALESTRA" }, "geometry": { "type": "Point", "coordinates": [ 9.16216, 45.4932 ] } },
{ "type": "Feature", "properties": { "Nome": "Artemedica", "Indirizzo": "Via Angera 3", "Categories": "Yoga, Nutritionists, Medical Centers", "Average Star Rating": 5.0, "Review Count": 1, "Neighborhood": "Maciachini - Maggiolina", "info": "PALESTRA" }, "geometry": { "type": "Point", "coordinates": [ 9.20305, 45.49397 ] } },
{ "type": "Feature", "properties": { "Nome": "Associazione Sportiva Dilettantistica Bendy Dance", "Indirizzo": "Via Marcantonio Colonna, 12", "Categories": "Dance Studios", "Average Star Rating": 0.0, "Review Count": 0, "Neighborhood": "Portello", "info": "PALESTRA" }, "geometry": { "type": "Point", "coordinates": [ 9.15441, 45.4858 ] } },
{ "type": "Feature", "properties": { "Nome": "G.V. 78", "Indirizzo": "Via Vallazze, 78", "Categories": "Fitness & Instruction", "Average Star Rating": 0.0, "Review Count": 0, "Neighborhood": "Città Studi", "info": "PALESTRA" }, "geometry": { "type": "Point", "coordinates": [ 9.22699, 45.48435 ] } },
{ "type": "Feature", "properties": { "Nome": "A.s.fitness Professionals FIA", "Indirizzo": "Via Termopili, 6", "Categories": "Sports Clubs, Fitness & Instruction", "Average Star Rating": 0.0, "Review Count": 0, "Neighborhood": "Loreto", "info": "PALESTRA" }, "geometry": { "type": "Point", "coordinates": [ 9.22017, 45.49111 ] } },
{ "type": "Feature", "properties": { "Nome": "Suanno", "Indirizzo": "Via Privata Oldrado da Tresseno 5", "Categories": "Dance Studios", "Average Star Rating": 0.0, "Review Count": 0, "Neighborhood": "Loreto", "info": "PALESTRA" }, "geometry": { "type": "Point", "coordinates": [ 9.21415, 45.49045 ] } },
{ "type": "Feature", "properties": { "Nome": "Inner Revolution Studio", "Indirizzo": "Viale Sarca 336F", "Categories": "Yoga, Pilates, Trainers", "Average Star Rating": 0.0, "Review Count": 0, "Neighborhood": "Bicocca", "info": "PALESTRA" }, "geometry": { "type": "Point", "coordinates": [ 9.219282592346961, 45.523062137076501 ] } },
{ "type": "Feature", "properties": { "Nome": "Kriya Yoga Maha Sadhana", "Indirizzo": "Via Menabrea 24", "Categories": "Yoga", "Average Star Rating": 4.0, "Review Count": 1, "Neighborhood": "Isola", "info": "PALESTRA" }, "geometry": { "type": "Point", "coordinates": [ 9.18584, 45.49669 ] } },
{ "type": "Feature", "properties": { "Nome": "Shambala Shiatsu di Douglas Gattini", "Indirizzo": "Via Jean Jaures, 9/SC.A", "Categories": "Fitness & Instruction", "Average Star Rating": 0.0, "Review Count": 0, "Neighborhood": "Padova", "info": "PALESTRA" }, "geometry": { "type": "Point", "coordinates": [ 9.21976, 45.50148 ] } },
{ "type": "Feature", "properties": { "Nome": "Fondazione DON Carlo Gnocchi - Onlus", "Indirizzo": "Via DON Luigi Palazzolo, 21", "Categories": "Fitness & Instruction", "Average Star Rating": 0.0, "Review Count": 0, "Neighborhood": "Villapizzone", "info": "PALESTRA" }, "geometry": { "type": "Point", "coordinates": [ 9.14441, 45.48934 ] } },
{ "type": "Feature", "properties": { "Nome": "Fujimoto / Yoji", "Indirizzo": "Via Lulli Giovanni, 30/SC.B", "Categories": "Fitness & Instruction", "Average Star Rating": 0.0, "Review Count": 0, "Neighborhood": "Loreto", "info": "PALESTRA" }, "geometry": { "type": "Point", "coordinates": [ 9.2212, 45.48687 ] } },
{ "type": "Feature", "properties": { "Nome": "Societa Sportiva Milano 2000 Societa Sportiva Diletantistica", "Indirizzo": "Via Lambrate, 20", "Categories": "Fitness & Instruction", "Average Star Rating": 0.0, "Review Count": 0, "Neighborhood": "Loreto", "info": "PALESTRA" }, "geometry": { "type": "Point", "coordinates": [ 9.22546, 45.49016 ] } },
{ "type": "Feature", "properties": { "Nome": "L'omino Danzante", "Indirizzo": "Via Caretta Annibale 3", "Categories": "Dance Studios", "Average Star Rating": 5.0, "Review Count": 1, "Neighborhood": "Buenos Aires - Venezia", "info": "PALESTRA" }, "geometry": { "type": "Point", "coordinates": [ 9.21642, 45.48528 ] } },
{ "type": "Feature", "properties": { "Nome": "Phoenix Dance Studio", "Indirizzo": "via Andrea Maria Ampère 103", "Categories": "Dance Studios, Pilates", "Average Star Rating": 0.0, "Review Count": 0, "Neighborhood": "Loreto", "info": "PALESTRA" }, "geometry": { "type": "Point", "coordinates": [ 9.22629, 45.48715 ] } },
{ "type": "Feature", "properties": { "Nome": "Associazione Il Mosaico danza", "Indirizzo": "Via Pomezia 12", "Categories": "Recreation Centers, Dance Schools, Dance Studios", "Average Star Rating": 0.0, "Review Count": 0, "Neighborhood": "Loreto", "info": "PALESTRA" }, "geometry": { "type": "Point", "coordinates": [ 9.21637, 45.48966 ] } },
{ "type": "Feature", "properties": { "Nome": "Il Borgo di Giannetti Marina", "Indirizzo": "Via F.lli di DIO, 6", "Categories": "Fitness & Instruction", "Average Star Rating": 0.0, "Review Count": 0, "Neighborhood": "Forze Armate", "info": "PALESTRA" }, "geometry": { "type": "Point", "coordinates": [ 9.09708, 45.46085 ] } },
{ "type": "Feature", "properties": { "Nome": "Ludus Magnum", "Indirizzo": "Via Mortara 15", "Categories": "Gyms, Martial Arts, Boxing", "Average Star Rating": 0.0, "Review Count": 0, "Neighborhood": "Navigli", "info": "PALESTRA" }, "geometry": { "type": "Point", "coordinates": [ 9.172422409057621, 45.453746795654297 ] } },
{ "type": "Feature", "properties": { "Nome": "Doria Boxing Team", "Indirizzo": "Via Pietro Mascagni 6", "Categories": "Boxing, Kickboxing", "Average Star Rating": 3.5, "Review Count": 2, "Neighborhood": "Guastalla", "info": "PALESTRA" }, "geometry": { "type": "Point", "coordinates": [ 9.20147, 45.46584 ] } },
{ "type": "Feature", "properties": { "Nome": "Domenico", "Indirizzo": "Via Paravia 26", "Categories": "Trainers", "Average Star Rating": 0.0, "Review Count": 0, "Neighborhood": "Selinunte", "info": "PALESTRA" }, "geometry": { "type": "Point", "coordinates": [ 9.13081, 45.47099 ] } },
{ "type": "Feature", "properties": { "Nome": "Ass.palestria Musokan Polisportivadilettantistica", "Indirizzo": "Via Delle Forze Armate, 195", "Categories": "Fitness & Instruction", "Average Star Rating": 0.0, "Review Count": 0, "Neighborhood": "Forze Armate", "info": "PALESTRA" }, "geometry": { "type": "Point", "coordinates": [ 9.11227, 45.4602099 ] } },
{ "type": "Feature", "properties": { "Nome": "Fight4Fun", "Indirizzo": "Via dei Missaglia 146", "Categories": "Martial Arts, Boxing", "Average Star Rating": 0.0, "Review Count": 0, "Neighborhood": "Gratosoglio - Ticinello", "info": "PALESTRA" }, "geometry": { "type": "Point", "coordinates": [ 9.1742851, 45.4029001 ] } },
{ "type": "Feature", "properties": { "Nome": "Fashion AND Fitness", "Indirizzo": "C. Sempione, 12", "Categories": "Fitness & Instruction", "Average Star Rating": 0.0, "Review Count": 0, "Neighborhood": "Sarpi", "info": "PALESTRA" }, "geometry": { "type": "Point", "coordinates": [ 9.1702, 45.47766 ] } },
{ "type": "Feature", "properties": { "Nome": "GetFIT Club", "Indirizzo": "Via Carlo Ravizza 4", "Categories": "Gyms", "Average Star Rating": 4.0, "Review Count": 1, "Neighborhood": "De Angeli - Monte Rosa", "info": "PALESTRA" }, "geometry": { "type": "Point", "coordinates": [ 9.1525803, 45.4675789 ] } },
{ "type": "Feature", "properties": { "Nome": "The Milk Bar", "Indirizzo": "Via Conca del Naviglio 5", "Categories": "Maternity Wear, Kids Activities, Yoga", "Average Star Rating": 0.0, "Review Count": 0, "Neighborhood": "Ticinese", "info": "PALESTRA" }, "geometry": { "type": "Point", "coordinates": [ 9.17794695600583, 45.458176913899798 ] } },
{ "type": "Feature", "properties": { "Nome": "Gymnica Fitness Club", "Indirizzo": "Viale Daniele Ranzoni, 21", "Categories": "Fitness & Instruction", "Average Star Rating": 0.0, "Review Count": 0, "Neighborhood": "Selinunte", "info": "PALESTRA" }, "geometry": { "type": "Point", "coordinates": [ 9.14509, 45.46895 ] } },
{ "type": "Feature", "properties": { "Nome": "ABC Palestre", "Indirizzo": "Via Zurigo 20", "Categories": "Gyms", "Average Star Rating": 0.0, "Review Count": 0, "Neighborhood": "Forze Armate", "info": "PALESTRA" }, "geometry": { "type": "Point", "coordinates": [ 9.11851099130643, 45.456961106204297 ] } },
{ "type": "Feature", "properties": { "Nome": "Palestra di Via Novara 97", "Indirizzo": "Via Novara, 97", "Categories": "Fitness & Instruction", "Average Star Rating": 0.0, "Review Count": 0, "Neighborhood": "Forze Armate", "info": "PALESTRA" }, "geometry": { "type": "Point", "coordinates": [ 9.11969, 45.47229 ] } },
{ "type": "Feature", "properties": { "Nome": "Fisic Center", "Indirizzo": "Via Pantigliate, 4", "Categories": "Fitness & Instruction", "Average Star Rating": 0.0, "Review Count": 0, "Neighborhood": "Bande Nere", "info": "PALESTRA" }, "geometry": { "type": "Point", "coordinates": [ 9.13158, 45.45957 ] } },
{ "type": "Feature", "properties": { "Nome": "Palestra Agonistic Club", "Indirizzo": "Via Martinetti Piero, 14", "Categories": "Fitness & Instruction", "Average Star Rating": 0.0, "Review Count": 0, "Neighborhood": "Bande Nere", "info": "PALESTRA" }, "geometry": { "type": "Point", "coordinates": [ 9.13407, 45.46671 ] } },
{ "type": "Feature", "properties": { "Nome": "Herbalife", "Indirizzo": "Via Zurigo 20", "Categories": "Martial Arts, Nutritionists", "Average Star Rating": 4.0, "Review Count": 1, "Neighborhood": "Forze Armate", "info": "PALESTRA" }, "geometry": { "type": "Point", "coordinates": [ 9.1184999, 45.45694 ] } },
{ "type": "Feature", "properties": { "Nome": "Milanosport Spa", "Indirizzo": "Via Cardellino 3", "Categories": "Fitness & Instruction, Recreation Centers", "Average Star Rating": 3.0, "Review Count": 1, "Neighborhood": "Lorenteggio", "info": "PALESTRA" }, "geometry": { "type": "Point", "coordinates": [ 9.1210075, 45.4537476 ] } },
{ "type": "Feature", "properties": { "Nome": "Centro Yoga Sangha", "Indirizzo": "Via Nicolò Alunno 10", "Categories": "Yoga", "Average Star Rating": 4.5, "Review Count": 2, "Neighborhood": "Bande Nere", "info": "PALESTRA" }, "geometry": { "type": "Point", "coordinates": [ 9.13441, 45.46373 ] } },
{ "type": "Feature", "properties": { "Nome": "Danza Palcoscenico", "Indirizzo": "Via Primaticcio 182", "Categories": "Dance Studios", "Average Star Rating": 0.0, "Review Count": 0, "Neighborhood": "Bande Nere", "info": "PALESTRA" }, "geometry": { "type": "Point", "coordinates": [ 9.129504, 45.460382 ] } },
{ "type": "Feature", "properties": { "Nome": "Yamambo' Dance School", "Indirizzo": "Via Bisceglie, 74", "Categories": "Dance Studios", "Average Star Rating": 0.0, "Review Count": 0, "Neighborhood": "Lorenteggio", "info": "PALESTRA" }, "geometry": { "type": "Point", "coordinates": [ 9.1168, 45.45241 ] } },
{ "type": "Feature", "properties": { "Nome": "Milanosport", "Indirizzo": "Via Sant'abbondio, 12", "Categories": "Fitness & Instruction", "Average Star Rating": 0.0, "Review Count": 0, "Neighborhood": "Stadera", "info": "PALESTRA" }, "geometry": { "type": "Point", "coordinates": [ 9.17317, 45.42513 ] } },
{ "type": "Feature", "properties": { "Nome": "Scuola Modello Rolando Toro", "Indirizzo": "Via Savona 134", "Categories": "Dance Studios, Life Coach", "Average Star Rating": 5.0, "Review Count": 1, "Neighborhood": "Giambellino", "info": "PALESTRA" }, "geometry": { "type": "Point", "coordinates": [ 9.1463699, 45.4485893 ] } },
{ "type": "Feature", "properties": { "Nome": "Protezione Personale Femminile", "Indirizzo": "Viale Etiopia 6", "Categories": "Martial Arts, Gyms", "Average Star Rating": 0.0, "Review Count": 0, "Neighborhood": "Bande Nere", "info": "PALESTRA" }, "geometry": { "type": "Point", "coordinates": [ 9.146854400634769, 45.458038330078097 ] } },
{ "type": "Feature", "properties": { "Nome": "Paolo Marchini", "Indirizzo": "Via Bartolomeo D'alviano 55", "Categories": "Trainers, Gyms", "Average Star Rating": 0.0, "Review Count": 0, "Neighborhood": "Bande Nere", "info": "PALESTRA" }, "geometry": { "type": "Point", "coordinates": [ 9.13824, 45.45864 ] } },
{ "type": "Feature", "properties": { "Nome": "Palestra di Via dei Gracchi di Lanzarone Germana e", "Indirizzo": "Via dei Gracchi, 16", "Categories": "Massage, Fitness & Instruction", "Average Star Rating": 0.0, "Review Count": 0, "Neighborhood": "Washington", "info": "PALESTRA" }, "geometry": { "type": "Point", "coordinates": [ 9.15051, 45.46388 ] } },
{ "type": "Feature", "properties": { "Nome": "Wellness Club Societa' Sportiva Dilettantistica", "Indirizzo": "Via Fezzan, 9", "Categories": "Sports Clubs, Fitness & Instruction", "Average Star Rating": 0.0, "Review Count": 0, "Neighborhood": "Bande Nere", "info": "PALESTRA" }, "geometry": { "type": "Point", "coordinates": [ 9.14625, 45.45886 ] } },
{ "type": "Feature", "properties": { "Nome": "Casa dei Bambini M. Montessori Coop.r.l.", "Indirizzo": "Via Arosio, 3", "Categories": "Elementary Schools, Child Care & Day Care, Fitness & Instruction", "Average Star Rating": 0.0, "Review Count": 0, "Neighborhood": "San Siro", "info": "PALESTRA" }, "geometry": { "type": "Point", "coordinates": [ 9.12485, 45.4734 ] } },
{ "type": "Feature", "properties": { "Nome": "Moro / Simonetta", "Indirizzo": "Via Cimarosa Domenico, 7", "Categories": "Fitness & Instruction", "Average Star Rating": 0.0, "Review Count": 0, "Neighborhood": "Washington", "info": "PALESTRA" }, "geometry": { "type": "Point", "coordinates": [ 9.15919, 45.46566 ] } },
{ "type": "Feature", "properties": { "Nome": "Vivere Snella Medical", "Indirizzo": "Via Brunelleschi 1", "Categories": "Weight Loss Centers, Nutritionists, Trainers", "Average Star Rating": 3.0, "Review Count": 3, "Neighborhood": "Giambellino", "info": "PALESTRA" }, "geometry": { "type": "Point", "coordinates": [ 9.1444695, 45.4490113 ] } },
{ "type": "Feature", "properties": { "Nome": "Adidas Runbase Milano", "Indirizzo": "Corso Sempione 10", "Categories": "Gyms", "Average Star Rating": 0.0, "Review Count": 0, "Neighborhood": "Sarpi", "info": "PALESTRA" }, "geometry": { "type": "Point", "coordinates": [ 9.17042069997369, 45.477416321566899 ] } },
{ "type": "Feature", "properties": { "Nome": "Yoga Studio Milano", "Indirizzo": "Via Numa Pompilio 3", "Categories": "Yoga", "Average Star Rating": 0.0, "Review Count": 0, "Neighborhood": "Magenta - San Vittore", "info": "PALESTRA" }, "geometry": { "type": "Point", "coordinates": [ 9.16955180302339, 45.459083448253502 ] } },
{ "type": "Feature", "properties": { "Nome": "Altamura Studio Fisioterapia", "Indirizzo": "Via Saverio Altamura, 8", "Categories": "Massage, Fitness & Instruction", "Average Star Rating": 0.0, "Review Count": 0, "Neighborhood": "Selinunte", "info": "PALESTRA" }, "geometry": { "type": "Point", "coordinates": [ 9.1407399, 45.46898 ] } },
{ "type": "Feature", "properties": { "Nome": "Nuoto e Benessere SSD", "Indirizzo": "Via Ravizza Carlo, 4", "Categories": "Fitness & Instruction", "Average Star Rating": 0.0, "Review Count": 0, "Neighborhood": "De Angeli - Monte Rosa", "info": "PALESTRA" }, "geometry": { "type": "Point", "coordinates": [ 9.15258, 45.46758 ] } },
{ "type": "Feature", "properties": { "Nome": "Newton SPA Unipersonale", "Indirizzo": "Via Giambellino, 5", "Categories": "Fitness & Instruction", "Average Star Rating": 0.0, "Review Count": 0, "Neighborhood": "Giambellino", "info": "PALESTRA" }, "geometry": { "type": "Point", "coordinates": [ 9.15285, 45.45183 ] } },
{ "type": "Feature", "properties": { "Nome": "Istituto Leone Xiii", "Indirizzo": "Via Leone Xiii, 12", "Categories": "Elementary Schools, Opera & Ballet, Music Venues, Fitness & Instruction, Middle Schools & High Schools, Recreation Centers", "Average Star Rating": 0.0, "Review Count": 0, "Neighborhood": "Pagano", "info": "PALESTRA" }, "geometry": { "type": "Point", "coordinates": [ 9.16313, 45.47432 ] } },
{ "type": "Feature", "properties": { "Nome": "Suryanagara", "Indirizzo": "Via Teramo, 5", "Categories": "Fitness & Instruction", "Average Star Rating": 0.0, "Review Count": 0, "Neighborhood": "Barona", "info": "PALESTRA" }, "geometry": { "type": "Point", "coordinates": [ 9.14883, 45.43318 ] } },
{ "type": "Feature", "properties": { "Nome": "Associazione Culturale Danza Movimento Arte Confronti", "Indirizzo": "Via Paolo Giovio, 16", "Categories": "Dance Studios", "Average Star Rating": 0.0, "Review Count": 0, "Neighborhood": "Washington", "info": "PALESTRA" }, "geometry": { "type": "Point", "coordinates": [ 9.1605899, 45.46452 ] } },
{ "type": "Feature", "properties": { "Nome": "Maclori FIT", "Indirizzo": "Via G.B. Vico, 38", "Categories": "Fitness & Instruction", "Average Star Rating": 0.0, "Review Count": 0, "Neighborhood": "Magenta - San Vittore", "info": "PALESTRA" }, "geometry": { "type": "Point", "coordinates": [ 9.16718, 45.46257 ] } },
{ "type": "Feature", "properties": { "Nome": "Centro Sportivo San Carlo", "Indirizzo": "Via Zenale 6", "Categories": "Sports Clubs, Martial Arts, Free Diving", "Average Star Rating": 5.0, "Review Count": 2, "Neighborhood": "Magenta - San Vittore", "info": "PALESTRA" }, "geometry": { "type": "Point", "coordinates": [ 9.16996, 45.46478 ] } },
{ "type": "Feature", "properties": { "Nome": "Crossfit Navigli", "Indirizzo": "Ripa di Porta Ticinese 75", "Categories": "Trainers", "Average Star Rating": 0.0, "Review Count": 0, "Neighborhood": "Navigli", "info": "PALESTRA" }, "geometry": { "type": "Point", "coordinates": [ 9.1734397, 45.449384 ] } },
{ "type": "Feature", "properties": { "Nome": "Spazio DarshaNatura", "Indirizzo": "Via Rubens 7", "Categories": "Naturopathic/Holistic, Reiki, Meditation Centers", "Average Star Rating": 5.0, "Review Count": 1, "Neighborhood": "Bande Nere", "info": "PALESTRA" }, "geometry": { "type": "Point", "coordinates": [ 9.145073, 45.4669116 ] } },
{ "type": "Feature", "properties": { "Nome": "Palestra Arkadia di ED. Fisica", "Indirizzo": "Via Ferruccio, 15", "Categories": "Fitness & Instruction", "Average Star Rating": 0.0, "Review Count": 0, "Neighborhood": "Pagano", "info": "PALESTRA" }, "geometry": { "type": "Point", "coordinates": [ 9.16202, 45.47802 ] } },
{ "type": "Feature", "properties": { "Nome": "Bali Yoga", "Indirizzo": "Via Carlo Ravizza 14", "Categories": "Yoga", "Average Star Rating": 4.7, "Review Count": 3, "Neighborhood": "De Angeli - Monte Rosa", "info": "PALESTRA" }, "geometry": { "type": "Point", "coordinates": [ 9.15148224681616, 45.468407585177403 ] } },
{ "type": "Feature", "properties": { "Nome": "Centro Gioiainsieme", "Indirizzo": "Viale Aretusa 30", "Categories": "Yoga", "Average Star Rating": 4.0, "Review Count": 1, "Neighborhood": "Bande Nere", "info": "PALESTRA" }, "geometry": { "type": "Point", "coordinates": [ 9.13684558868408, 45.466419219970703 ] } },
{ "type": "Feature", "properties": { "Nome": "Societa' Sportiva Dilettantistica Cesare", "Indirizzo": "Via Cesare DA Sesto, 24", "Categories": "Fitness & Instruction", "Average Star Rating": 0.0, "Review Count": 0, "Neighborhood": "Magenta - San Vittore", "info": "PALESTRA" }, "geometry": { "type": "Point", "coordinates": [ 9.17131, 45.45874 ] } },
{ "type": "Feature", "properties": { "Nome": "IKMM Krav Maga", "Indirizzo": "Via Giuseppe Massarenti 15", "Categories": "Martial Arts", "Average Star Rating": 0.0, "Review Count": 0, "Neighborhood": "Selinunte", "info": "PALESTRA" }, "geometry": { "type": "Point", "coordinates": [ 9.1407075297594, 45.469403017692997 ] } },
{ "type": "Feature", "properties": { "Nome": "Club Sergio Bertolazzi Palestra Csb", "Indirizzo": "Via California 7", "Categories": "Gyms", "Average Star Rating": 0.0, "Review Count": 0, "Neighborhood": "Washington", "info": "PALESTRA" }, "geometry": { "type": "Point", "coordinates": [ 9.1606536, 45.4588507 ] } },
{ "type": "Feature", "properties": { "Nome": "Parco Donna Prassede :: RUNNING", "Indirizzo": "Via Donna Prassede 7", "Categories": "Fitness & Instruction, Parks", "Average Star Rating": 0.0, "Review Count": 0, "Neighborhood": "Stadera", "info": "PALESTRA" }, "geometry": { "type": "Point", "coordinates": [ 9.16898534, 45.43019146 ] } },
{ "type": "Feature", "properties": { "Nome": "Centro Danza Quick AND Slow", "Indirizzo": "Via Alfonso Capecelatro, 22", "Categories": "Dance Studios", "Average Star Rating": 0.0, "Review Count": 0, "Neighborhood": "Selinunte", "info": "PALESTRA" }, "geometry": { "type": "Point", "coordinates": [ 9.13225, 45.46956 ] } },
{ "type": "Feature", "properties": { "Nome": "VYoga", "Indirizzo": "", "Categories": "Yoga, Meditation Centers", "Average Star Rating": 0.0, "Review Count": 0, "Neighborhood": "Tortona", "info": "PALESTRA" }, "geometry": { "type": "Point", "coordinates": [ 9.16367, 45.45619 ] } },
{ "type": "Feature", "properties": { "Nome": "Elite Krav Maga Milano", "Indirizzo": "Via Carroccio 13", "Categories": "Martial Arts", "Average Star Rating": 0.0, "Review Count": 0, "Neighborhood": "Magenta - San Vittore", "info": "PALESTRA" }, "geometry": { "type": "Point", "coordinates": [ 9.172659, 45.4596085 ] } },
{ "type": "Feature", "properties": { "Nome": "Rasori9", "Indirizzo": "Via Giovanni Rasori 9", "Categories": "Dance Studios, Yoga, Venues & Event Spaces", "Average Star Rating": 0.0, "Review Count": 0, "Neighborhood": "Pagano", "info": "PALESTRA" }, "geometry": { "type": "Point", "coordinates": [ 9.16242, 45.4677 ] } },
{ "type": "Feature", "properties": { "Nome": "Let's Dance", "Indirizzo": "Via Puricelli 20", "Categories": "Dance Studios", "Average Star Rating": 5.0, "Review Count": 1, "Neighborhood": "Bande Nere", "info": "PALESTRA" }, "geometry": { "type": "Point", "coordinates": [ 9.12965, 45.46498 ] } },
{ "type": "Feature", "properties": { "Nome": "CrossFit Darsena", "Indirizzo": "Viale Cassala 61", "Categories": "Gyms", "Average Star Rating": 0.0, "Review Count": 0, "Neighborhood": "Navigli", "info": "PALESTRA" }, "geometry": { "type": "Point", "coordinates": [ 9.16635, 45.44438 ] } },
{ "type": "Feature", "properties": { "Nome": "Associazione Lavoro Educazione Sport", "Indirizzo": "Piazza Sant'agostino, 1", "Categories": "Community Service/Non-Profit, Specialty Schools, Dance Studios, Sports Clubs, Recreation Centers", "Average Star Rating": 0.0, "Review Count": 0, "Neighborhood": "Magenta - San Vittore", "info": "PALESTRA" }, "geometry": { "type": "Point", "coordinates": [ 9.17069, 45.45878 ] } },
{ "type": "Feature", "properties": { "Nome": "Scuola di Danza Principessa", "Indirizzo": "Via Solari Andrea, 9", "Categories": "Dance Studios", "Average Star Rating": 0.0, "Review Count": 0, "Neighborhood": "Tortona", "info": "PALESTRA" }, "geometry": { "type": "Point", "coordinates": [ 9.1672499, 45.45651 ] } },
{ "type": "Feature", "properties": { "Nome": "Centrodanza-Panzetti di Panzetti Maria Luisa", "Indirizzo": "Via Pietro Paolo Rubens, 19", "Categories": "Dance Studios", "Average Star Rating": 0.0, "Review Count": 0, "Neighborhood": "Bande Nere", "info": "PALESTRA" }, "geometry": { "type": "Point", "coordinates": [ 9.1435, 45.46709 ] } },
{ "type": "Feature", "properties": { "Nome": "Vivere Snella Medical", "Indirizzo": "Viale Papiniano 16", "Categories": "Weight Loss Centers, Nutritionists, Trainers", "Average Star Rating": 3.5, "Review Count": 2, "Neighborhood": "Magenta - San Vittore", "info": "PALESTRA" }, "geometry": { "type": "Point", "coordinates": [ 9.1660347, 45.4601743 ] } },
{ "type": "Feature", "properties": { "Nome": "Associazione Danza Milano", "Indirizzo": "Via Tobruk 3", "Categories": "Dance Studios", "Average Star Rating": 0.0, "Review Count": 0, "Neighborhood": "Bande Nere", "info": "PALESTRA" }, "geometry": { "type": "Point", "coordinates": [ 9.1510918, 45.4556571 ] } },
{ "type": "Feature", "properties": { "Nome": "Tana dei Dragoni", "Indirizzo": "Via Savona 1A", "Categories": "Martial Arts", "Average Star Rating": 5.0, "Review Count": 1, "Neighborhood": "Navigli", "info": "PALESTRA" }, "geometry": { "type": "Point", "coordinates": [ 9.17031, 45.4558296 ] } },
{ "type": "Feature", "properties": { "Nome": "Spazio Teatro Linguaggi Creativi", "Indirizzo": "Via Eugenio Villoresi 26", "Categories": "Performing Arts, Dance Studios", "Average Star Rating": 4.0, "Review Count": 1, "Neighborhood": "Navigli", "info": "PALESTRA" }, "geometry": { "type": "Point", "coordinates": [ 9.1636399, 45.44648 ] } },
{ "type": "Feature", "properties": { "Nome": "Dott.ssa Miriam Sommese", "Indirizzo": "Via Desenzano 14", "Categories": "Osteopathic Physicians, Trainers", "Average Star Rating": 0.0, "Review Count": 0, "Neighborhood": "Bande Nere", "info": "PALESTRA" }, "geometry": { "type": "Point", "coordinates": [ 9.14079, 45.46194 ] } },
{ "type": "Feature", "properties": { "Nome": "Komeikai Scuola di Kobudo", "Indirizzo": "Via Piero della Francesca 4", "Categories": "Martial Arts", "Average Star Rating": 0.0, "Review Count": 0, "Neighborhood": "Sarpi", "info": "PALESTRA" }, "geometry": { "type": "Point", "coordinates": [ 9.16739, 45.48221 ] } },
{ "type": "Feature", "properties": { "Nome": "Figurella", "Indirizzo": "Piazza DE Angeli Ernesto, 7", "Categories": "Fitness & Instruction", "Average Star Rating": 0.0, "Review Count": 0, "Neighborhood": "Washington", "info": "PALESTRA" }, "geometry": { "type": "Point", "coordinates": [ 9.14918, 45.4662 ] } },
{ "type": "Feature", "properties": { "Nome": "TB Tango", "Indirizzo": "Via Luca Signorelli 7", "Categories": "Dance Studios", "Average Star Rating": 0.0, "Review Count": 0, "Neighborhood": "Sarpi", "info": "PALESTRA" }, "geometry": { "type": "Point", "coordinates": [ 9.1731901, 45.4818687 ] } },
{ "type": "Feature", "properties": { "Nome": "Biti Dance Studio", "Indirizzo": "Via Giusti Giuseppe, 37", "Categories": "Dance Studios", "Average Star Rating": 0.0, "Review Count": 0, "Neighborhood": "Sarpi", "info": "PALESTRA" }, "geometry": { "type": "Point", "coordinates": [ 9.17389, 45.47972 ] } },
{ "type": "Feature", "properties": { "Nome": "Associazione Hara Yoga ASS", "Indirizzo": "Via Savona, 10", "Categories": "Fitness & Instruction, Recreation Centers", "Average Star Rating": 0.0, "Review Count": 0, "Neighborhood": "Tortona", "info": "PALESTRA" }, "geometry": { "type": "Point", "coordinates": [ 9.16857, 45.4555999 ] } },
{ "type": "Feature", "properties": { "Nome": "Monsoon People", "Indirizzo": "Via Washington 76", "Categories": "Yoga", "Average Star Rating": 0.0, "Review Count": 0, "Neighborhood": "Washington", "info": "PALESTRA" }, "geometry": { "type": "Point", "coordinates": [ 9.15455, 45.45921 ] } },
{ "type": "Feature", "properties": { "Nome": "Palestra Studio di Vedres Elisabetta", "Indirizzo": "Via DE Togni Aristide, 12", "Categories": "Fitness & Instruction", "Average Star Rating": 0.0, "Review Count": 0, "Neighborhood": "Magenta - San Vittore", "info": "PALESTRA" }, "geometry": { "type": "Point", "coordinates": [ 9.17325, 45.46459 ] } },
{ "type": "Feature", "properties": { "Nome": "Arthur Murray Dance Studio", "Indirizzo": "Viale Misurata, 28", "Categories": "Dance Studios", "Average Star Rating": 0.0, "Review Count": 0, "Neighborhood": "Bande Nere", "info": "PALESTRA" }, "geometry": { "type": "Point", "coordinates": [ 9.15154, 45.45653 ] } },
{ "type": "Feature", "properties": { "Nome": "Bali Yoga", "Indirizzo": "Via Frua 8", "Categories": "Yoga", "Average Star Rating": 0.0, "Review Count": 0, "Neighborhood": "Washington", "info": "PALESTRA" }, "geometry": { "type": "Point", "coordinates": [ 9.15117, 45.46502 ] } },
{ "type": "Feature", "properties": { "Nome": "Enzo Montanari Shotokan Karate Studio", "Indirizzo": "Via Petrarca 8", "Categories": "Karate", "Average Star Rating": 5.0, "Review Count": 1, "Neighborhood": "Magenta - San Vittore", "info": "PALESTRA" }, "geometry": { "type": "Point", "coordinates": [ 9.1691904, 45.4713516 ] } },
{ "type": "Feature", "properties": { "Nome": "Shakti Centro Studi Yoga", "Indirizzo": "Via Villoresi Eugenio, 11", "Categories": "Yoga", "Average Star Rating": 4.0, "Review Count": 1, "Neighborhood": "Navigli", "info": "PALESTRA" }, "geometry": { "type": "Point", "coordinates": [ 9.163, 45.44798 ] } },
{ "type": "Feature", "properties": { "Nome": "The Yoga Place", "Indirizzo": "Via Giasone del Maino 16", "Categories": "Yoga", "Average Star Rating": 3.0, "Review Count": 1, "Neighborhood": "Washington", "info": "PALESTRA" }, "geometry": { "type": "Point", "coordinates": [ 9.153215959668159, 45.462705159972103 ] } },
{ "type": "Feature", "properties": { "Nome": "Monastero Zen - Il Cerchio", "Indirizzo": "Via dei Crollalanza 9", "Categories": "Meditation Centers", "Average Star Rating": 4.0, "Review Count": 1, "Neighborhood": "Navigli", "info": "PALESTRA" }, "geometry": { "type": "Point", "coordinates": [ 9.1654298, 45.4457437 ] } },
{ "type": "Feature", "properties": { "Nome": "Eisho Club Milano", "Indirizzo": "Via Piero della Francesca 4", "Categories": "Martial Arts", "Average Star Rating": 0.0, "Review Count": 0, "Neighborhood": "Sarpi", "info": "PALESTRA" }, "geometry": { "type": "Point", "coordinates": [ 9.1673866, 45.482213 ] } },
{ "type": "Feature", "properties": { "Nome": "Happy Yoga Dance", "Indirizzo": "Via Sangiorgio Abbondio 20", "Categories": "Yoga", "Average Star Rating": 0.0, "Review Count": 0, "Neighborhood": "Pagano", "info": "PALESTRA" }, "geometry": { "type": "Point", "coordinates": [ 9.16592, 45.47595 ] } },
{ "type": "Feature", "properties": { "Nome": "Sempione Pilates", "Indirizzo": "Via Giuseppe Mussi 7", "Categories": "Pilates", "Average Star Rating": 0.0, "Review Count": 0, "Neighborhood": "Sarpi", "info": "PALESTRA" }, "geometry": { "type": "Point", "coordinates": [ 9.1660893, 45.4821871 ] } },
{ "type": "Feature", "properties": { "Nome": "20hours", "Indirizzo": "Via Pietro Panzeri 10", "Categories": "Trainers, Gyms", "Average Star Rating": 0.0, "Review Count": 0, "Neighborhood": "Ticinese", "info": "PALESTRA" }, "geometry": { "type": "Point", "coordinates": [ 9.17803285319502, 45.453822602867 ] } },
{ "type": "Feature", "properties": { "Nome": "Molonlabe Stadera Boxing Club", "Indirizzo": "Piazzale Francesco Carrara 19", "Categories": "Boxing", "Average Star Rating": 4.0, "Review Count": 3, "Neighborhood": "Stadera", "info": "PALESTRA" }, "geometry": { "type": "Point", "coordinates": [ 9.1757956, 45.436811 ] } },
{ "type": "Feature", "properties": { "Nome": "Yoga Shop", "Indirizzo": "Viale Gabriele D'Annunzio 25", "Categories": "Sports Wear, Yoga", "Average Star Rating": 4.3, "Review Count": 3, "Neighborhood": "Ticinese", "info": "PALESTRA" }, "geometry": { "type": "Point", "coordinates": [ 9.17757, 45.45304 ] } },
{ "type": "Feature", "properties": { "Nome": "Tonic", "Indirizzo": "Via Mestre 7", "Categories": "Gyms, Climbing", "Average Star Rating": 2.5, "Review Count": 13, "Neighborhood": "Parco Lambro - Cimiano", "info": "PALESTRA" }, "geometry": { "type": "Point", "coordinates": [ 9.24008, 45.49196 ] } },
{ "type": "Feature", "properties": { "Nome": "Flex & Flow", "Indirizzo": "Via Eustachi 22", "Categories": "Yoga, Tai Chi, Pilates", "Average Star Rating": 0.0, "Review Count": 0, "Neighborhood": "Buenos Aires - Venezia", "info": "PALESTRA" }, "geometry": { "type": "Point", "coordinates": [ 9.21496, 45.47621 ] } },
{ "type": "Feature", "properties": { "Nome": "Virgin Active", "Indirizzo": "Via del Vecchio Politecnico 4", "Categories": "Gyms, Trainers, Pilates", "Average Star Rating": 0.0, "Review Count": 0, "Neighborhood": "Guastalla", "info": "PALESTRA" }, "geometry": { "type": "Point", "coordinates": [ 9.196354, 45.472313 ] } },
{ "type": "Feature", "properties": { "Nome": "Natked", "Indirizzo": "Via Melchiorre Gioia 7", "Categories": "Gyms, Pilates", "Average Star Rating": 0.0, "Review Count": 0, "Neighborhood": "GARIBALDI REPUBBLICA", "info": "PALESTRA" }, "geometry": { "type": "Point", "coordinates": [ 9.19189033739567, 45.482081549476398 ] } },
{ "type": "Feature", "properties": { "Nome": "Polisthenics", "Indirizzo": "Via Madre Anna Eugenia Picco 31", "Categories": "Gyms, Dance Studios, Pole Dancing Classes", "Average Star Rating": 0.0, "Review Count": 0, "Neighborhood": "Padova", "info": "PALESTRA" }, "geometry": { "type": "Point", "coordinates": [ 9.2426775, 45.5026899 ] } },
{ "type": "Feature", "properties": { "Nome": "Cagliero Fitness", "Indirizzo": "Piazza Della Repubblica, 1/A", "Categories": "Fitness & Instruction", "Average Star Rating": 0.0, "Review Count": 0, "Neighborhood": "Brera", "info": "PALESTRA" }, "geometry": { "type": "Point", "coordinates": [ 9.19547, 45.47746 ] } },
{ "type": "Feature", "properties": { "Nome": "McFit", "Indirizzo": "Via Luisa Battistotti Sassi 11", "Categories": "Gyms", "Average Star Rating": 0.0, "Review Count": 0, "Neighborhood": "Corsica", "info": "PALESTRA" }, "geometry": { "type": "Point", "coordinates": [ 9.22767067427435, 45.463379884509997 ] } },
{ "type": "Feature", "properties": { "Nome": "Palermo 8", "Indirizzo": "Via Palermo 8", "Categories": "Yoga, Pilates", "Average Star Rating": 0.0, "Review Count": 0, "Neighborhood": "Brera", "info": "PALESTRA" }, "geometry": { "type": "Point", "coordinates": [ 9.1854095, 45.4753494 ] } },
{ "type": "Feature", "properties": { "Nome": "Mrs.Sporty", "Indirizzo": "via Signele 2", "Categories": "Gyms, Beauty & Spas", "Average Star Rating": 0.0, "Review Count": 0, "Neighborhood": "Corsica", "info": "PALESTRA" }, "geometry": { "type": "Point", "coordinates": [ 9.2286228, 45.4666756 ] } },
{ "type": "Feature", "properties": { "Nome": "A.s.silver GYM", "Indirizzo": "Via Nullo Francesco, 14", "Categories": "Fitness & Instruction", "Average Star Rating": 0.0, "Review Count": 0, "Neighborhood": "Buenos Aires - Venezia", "info": "PALESTRA" }, "geometry": { "type": "Point", "coordinates": [ 9.21846, 45.4691 ] } },
{ "type": "Feature", "properties": { "Nome": "Office Massage", "Indirizzo": "Via Teodosio 102", "Categories": "Massage, Meditation Centers, Pilates", "Average Star Rating": 0.0, "Review Count": 0, "Neighborhood": "Loreto", "info": "PALESTRA" }, "geometry": { "type": "Point", "coordinates": [ 9.23005, 45.49047 ] } },
{ "type": "Feature", "properties": { "Nome": "Centro Yoga La Sorgente", "Indirizzo": "Via Nino Bixio, 40", "Categories": "Fitness & Instruction", "Average Star Rating": 0.0, "Review Count": 0, "Neighborhood": "Buenos Aires - Venezia", "info": "PALESTRA" }, "geometry": { "type": "Point", "coordinates": [ 9.21382, 45.47271 ] } },
{ "type": "Feature", "properties": { "Nome": "La Palestrina di Emiliano", "Indirizzo": "Via Borgospesso 12", "Categories": "Gyms, Trainers", "Average Star Rating": 0.0, "Review Count": 0, "Neighborhood": "Brera", "info": "PALESTRA" }, "geometry": { "type": "Point", "coordinates": [ 9.193988542327819, 45.4712988643941 ] } },
{ "type": "Feature", "properties": { "Nome": "Bikram Yoga", "Indirizzo": "Via Gaspare Spontini 8", "Categories": "Yoga", "Average Star Rating": 5.0, "Review Count": 1, "Neighborhood": "Buenos Aires - Venezia", "info": "PALESTRA" }, "geometry": { "type": "Point", "coordinates": [ 9.21385, 45.4816589 ] } },
{ "type": "Feature", "properties": { "Nome": "Wellness Club Societa' Sportiva Dilettantistica", "Indirizzo": "Piazza PIO XI, 1", "Categories": "Sports Clubs, Fitness & Instruction", "Average Star Rating": 0.0, "Review Count": 0, "Neighborhood": "Duomo", "info": "PALESTRA" }, "geometry": { "type": "Point", "coordinates": [ 9.18651, 45.46393 ] } },
{ "type": "Feature", "properties": { "Nome": "Mejiro Gym Palestra", "Indirizzo": "Via Umbria 36", "Categories": "Gyms", "Average Star Rating": 0.0, "Review Count": 0, "Neighborhood": "XXII Marzo", "info": "PALESTRA" }, "geometry": { "type": "Point", "coordinates": [ 9.2176526, 45.4607142 ] } },
{ "type": "Feature", "properties": { "Nome": "Platinum Fitness Club", "Indirizzo": "Via Temistocle Calzecchi 2", "Categories": "Gyms, Trainers", "Average Star Rating": 0.0, "Review Count": 0, "Neighborhood": "Città Studi", "info": "PALESTRA" }, "geometry": { "type": "Point", "coordinates": [ 9.23517, 45.47123 ] } },
{ "type": "Feature", "properties": { "Nome": "Squash Rackets", "Indirizzo": "Via Colombo Giuseppe, 81", "Categories": "Fitness & Instruction", "Average Star Rating": 0.0, "Review Count": 0, "Neighborhood": "Città Studi", "info": "PALESTRA" }, "geometry": { "type": "Point", "coordinates": [ 9.22637, 45.47574 ] } },
{ "type": "Feature", "properties": { "Nome": "Fitness First Italia", "Indirizzo": "Via SAN Paolo, 7", "Categories": "Fitness & Instruction", "Average Star Rating": 0.0, "Review Count": 0, "Neighborhood": "Duomo", "info": "PALESTRA" }, "geometry": { "type": "Point", "coordinates": [ 9.1933399, 45.46575 ] } },
{ "type": "Feature", "properties": { "Nome": "Spazio nel Tempo", "Indirizzo": "via Castel Morrone 30", "Categories": "Yoga, Reiki", "Average Star Rating": 0.0, "Review Count": 0, "Neighborhood": "Buenos Aires - Venezia", "info": "PALESTRA" }, "geometry": { "type": "Point", "coordinates": [ 9.21495, 45.47217 ] } },
{ "type": "Feature", "properties": { "Nome": "Open Dance Center", "Indirizzo": "Via Privata Antonio Meucci 73", "Categories": "Dance Studios", "Average Star Rating": 3.0, "Review Count": 1, "Neighborhood": "Adriano", "info": "PALESTRA" }, "geometry": { "type": "Point", "coordinates": [ 9.23858, 45.50775 ] } },
{ "type": "Feature", "properties": { "Nome": "Reverbia", "Indirizzo": "Via San Martino 14", "Categories": "Trainers, Gyms, Pilates", "Average Star Rating": 0.0, "Review Count": 0, "Neighborhood": "Vigentina", "info": "PALESTRA" }, "geometry": { "type": "Point", "coordinates": [ 9.18943, 45.4531 ] } },
{ "type": "Feature", "properties": { "Nome": "GetFit", "Indirizzo": "Via Piranesi 9", "Categories": "Gyms, Swimming Pools", "Average Star Rating": 0.0, "Review Count": 0, "Neighborhood": "Corsica", "info": "PALESTRA" }, "geometry": { "type": "Point", "coordinates": [ 9.22529888153076, 45.460666656494098 ] } },
{ "type": "Feature", "properties": { "Nome": "Roma", "Indirizzo": "Via Bezzecca, 9", "Categories": "Fitness & Instruction", "Average Star Rating": 0.0, "Review Count": 0, "Neighborhood": "XXII Marzo", "info": "PALESTRA" }, "geometry": { "type": "Point", "coordinates": [ 9.21091, 45.4609499 ] } },
{ "type": "Feature", "properties": { "Nome": "Offlimits", "Indirizzo": "Via Lomellina 47", "Categories": "Gyms", "Average Star Rating": 5.0, "Review Count": 1, "Neighborhood": "Corsica", "info": "PALESTRA" }, "geometry": { "type": "Point", "coordinates": [ 9.22998, 45.46661 ] } },
{ "type": "Feature", "properties": { "Nome": "BaliYoga", "Indirizzo": "Via Varese 18", "Categories": "Yoga", "Average Star Rating": 5.0, "Review Count": 1, "Neighborhood": "Brera", "info": "PALESTRA" }, "geometry": { "type": "Point", "coordinates": [ 9.184376187622551, 45.480297088447699 ] } },
{ "type": "Feature", "properties": { "Nome": "Alina Quintana", "Indirizzo": "Via Francesco Reina", "Categories": "Dance Schools, Dance Studios, Opera & Ballet", "Average Star Rating": 0.0, "Review Count": 0, "Neighborhood": "Corsica", "info": "PALESTRA" }, "geometry": { "type": "Point", "coordinates": [ 9.2263002, 45.4667587 ] } },
{ "type": "Feature", "properties": { "Nome": "Virgin Active Diaz", "Indirizzo": "Piazza Armando Diaz 6", "Categories": "Gyms, Pilates, Yoga", "Average Star Rating": 0.0, "Review Count": 0, "Neighborhood": "Duomo", "info": "PALESTRA" }, "geometry": { "type": "Point", "coordinates": [ 9.18952, 45.46228 ] } },
{ "type": "Feature", "properties": { "Nome": "Scanzi / Roberto", "Indirizzo": "Via Giovanni Battista Niccolini, 20", "Categories": "Fitness & Instruction", "Average Star Rating": 0.0, "Review Count": 0, "Neighborhood": "Sarpi", "info": "PALESTRA" }, "geometry": { "type": "Point", "coordinates": [ 9.17738, 45.4812 ] } },
{ "type": "Feature", "properties": { "Nome": "Lorini / Pasquale", "Indirizzo": "Via Antonio Kramer, 32/SC.A", "Categories": "Fitness & Instruction", "Average Star Rating": 0.0, "Review Count": 0, "Neighborhood": "Buenos Aires - Venezia", "info": "PALESTRA" }, "geometry": { "type": "Point", "coordinates": [ 9.20865, 45.47191 ] } },
{ "type": "Feature", "properties": { "Nome": "Universo", "Indirizzo": "Via del Crocefisso, 5", "Categories": "Fitness & Instruction", "Average Star Rating": 0.0, "Review Count": 0, "Neighborhood": "Duomo", "info": "PALESTRA" }, "geometry": { "type": "Point", "coordinates": [ 9.18683, 45.45693 ] } },
{ "type": "Feature", "properties": { "Nome": "Best Price", "Indirizzo": "Via Sismondi 47", "Categories": "Gyms", "Average Star Rating": 3.0, "Review Count": 1, "Neighborhood": "Corsica", "info": "PALESTRA" }, "geometry": { "type": "Point", "coordinates": [ 9.2318901, 45.4657449 ] } },
{ "type": "Feature", "properties": { "Nome": "Sporting Investiments AND Production", "Indirizzo": "Via Marcora Giuseppe, 6", "Categories": "Fitness & Instruction", "Average Star Rating": 0.0, "Review Count": 0, "Neighborhood": "Brera", "info": "PALESTRA" }, "geometry": { "type": "Point", "coordinates": [ 9.1950299, 45.47815 ] } },
{ "type": "Feature", "properties": { "Nome": "Yoga Pilates & More", "Indirizzo": "1325 Markham Rd 11", "Categories": "Yoga, Pilates, Trainers", "Average Star Rating": 0.0, "Review Count": 0, "Neighborhood": "Duomo", "info": "PALESTRA" }, "geometry": { "type": "Point", "coordinates": [ 9.181779861450201, 45.467960357666001 ] } },
{ "type": "Feature", "properties": { "Nome": "Joyfit", "Indirizzo": "", "Categories": "Gyms", "Average Star Rating": 0.0, "Review Count": 0, "Neighborhood": "Buenos Aires - Venezia", "info": "PALESTRA" }, "geometry": { "type": "Point", "coordinates": [ 9.2183599, 45.4752007 ] } },
{ "type": "Feature", "properties": { "Nome": "Palestra Forte", "Indirizzo": "Via Statuto, 4", "Categories": "Fitness & Instruction", "Average Star Rating": 0.0, "Review Count": 0, "Neighborhood": "Brera", "info": "PALESTRA" }, "geometry": { "type": "Point", "coordinates": [ 9.18629, 45.47598 ] } },
{ "type": "Feature", "properties": { "Nome": "Palestra Fisiodinamic ", "Indirizzo": "Via Maiocchi Achille, 8/SC.A", "Categories": "Fitness & Instruction", "Average Star Rating": 0.0, "Review Count": 0, "Neighborhood": "Buenos Aires - Venezia", "info": "PALESTRA" }, "geometry": { "type": "Point", "coordinates": [ 9.2123899, 45.4749 ] } },
{ "type": "Feature", "properties": { "Nome": "Jhana Loft", "Indirizzo": "Via Giuseppe Sirtori 4", "Categories": "Yoga", "Average Star Rating": 5.0, "Review Count": 1, "Neighborhood": "Buenos Aires - Venezia", "info": "PALESTRA" }, "geometry": { "type": "Point", "coordinates": [ 9.20844, 45.47247 ] } },
{ "type": "Feature", "properties": { "Nome": "Guastallapilates", "Indirizzo": "Via della Guastalla 5", "Categories": "Pilates, Gyms", "Average Star Rating": 4.0, "Review Count": 1, "Neighborhood": "Guastalla", "info": "PALESTRA" }, "geometry": { "type": "Point", "coordinates": [ 9.19852, 45.461451 ] } },
{ "type": "Feature", "properties": { "Nome": "L'oasi", "Indirizzo": "Via Varese, 12", "Categories": "Fitness & Instruction", "Average Star Rating": 0.0, "Review Count": 0, "Neighborhood": "Brera", "info": "PALESTRA" }, "geometry": { "type": "Point", "coordinates": [ 9.18446, 45.47974 ] } },
{ "type": "Feature", "properties": { "Nome": "Bottini Ombretta Maria Elena", "Indirizzo": "Via Calvi Pietro, 3", "Categories": "Fitness & Instruction", "Average Star Rating": 0.0, "Review Count": 0, "Neighborhood": "XXII Marzo", "info": "PALESTRA" }, "geometry": { "type": "Point", "coordinates": [ 9.21037, 45.46674 ] } },
{ "type": "Feature", "properties": { "Nome": "Activity", "Indirizzo": "Via Eustachi Bartolomeo, 22", "Categories": "Fitness & Instruction", "Average Star Rating": 0.0, "Review Count": 0, "Neighborhood": "Buenos Aires - Venezia", "info": "PALESTRA" }, "geometry": { "type": "Point", "coordinates": [ 9.21496, 45.47621 ] } },
{ "type": "Feature", "properties": { "Nome": "Dips", "Indirizzo": "Via Pilo Rosolino, 14", "Categories": "Fitness & Instruction", "Average Star Rating": 0.0, "Review Count": 0, "Neighborhood": "Buenos Aires - Venezia", "info": "PALESTRA" }, "geometry": { "type": "Point", "coordinates": [ 9.2123899, 45.47331 ] } },
{ "type": "Feature", "properties": { "Nome": "FitUP", "Indirizzo": "Via Altaguardia 4", "Categories": "Gyms, Pilates, Yoga", "Average Star Rating": 0.0, "Review Count": 0, "Neighborhood": "Porta Romana", "info": "PALESTRA" }, "geometry": { "type": "Point", "coordinates": [ 9.19948, 45.45039 ] } },
{ "type": "Feature", "properties": { "Nome": "Giuri / Albino", "Indirizzo": "Via Paracelso, 6", "Categories": "Dance Studios", "Average Star Rating": 0.0, "Review Count": 0, "Neighborhood": "Buenos Aires - Venezia", "info": "PALESTRA" }, "geometry": { "type": "Point", "coordinates": [ 9.21626, 45.48045 ] } },
{ "type": "Feature", "properties": { "Nome": "Hohm Street Yoga", "Indirizzo": "Via San Calocero 3", "Categories": "Yoga", "Average Star Rating": 0.0, "Review Count": 0, "Neighborhood": "Magenta - San Vittore", "info": "PALESTRA" }, "geometry": { "type": "Point", "coordinates": [ 9.17633059396924, 45.458355435723902 ] } },
{ "type": "Feature", "properties": { "Nome": "Reverbia", "Indirizzo": "Via Macedonio Melloni 18", "Categories": "Trainers, Pilates, Gyms", "Average Star Rating": 0.0, "Review Count": 0, "Neighborhood": "XXII Marzo", "info": "PALESTRA" }, "geometry": { "type": "Point", "coordinates": [ 9.21088, 45.46654 ] } },
{ "type": "Feature", "properties": { "Nome": "Kinesis", "Indirizzo": "Via Simone D'orsenigo 1", "Categories": "Massage, Fitness & Instruction", "Average Star Rating": 0.0, "Review Count": 0, "Neighborhood": "XXII Marzo", "info": "PALESTRA" }, "geometry": { "type": "Point", "coordinates": [ 9.2125299, 45.45635 ] } },
{ "type": "Feature", "properties": { "Nome": "Centro Dharmadhatu", "Indirizzo": "Via Venezuela, 3", "Categories": "Fitness & Instruction", "Average Star Rating": 0.0, "Review Count": 0, "Neighborhood": "Gallaratese", "info": "PALESTRA" }, "geometry": { "type": "Point", "coordinates": [ 9.1252099, 45.49501 ] } },
{ "type": "Feature", "properties": { "Nome": "Omkara", "Indirizzo": "Via San Marco 24", "Categories": "Pilates", "Average Star Rating": 4.0, "Review Count": 1, "Neighborhood": "Brera", "info": "PALESTRA" }, "geometry": { "type": "Point", "coordinates": [ 9.1885722, 45.4760627 ] } },
{ "type": "Feature", "properties": { "Nome": "Hiso", "Indirizzo": "Via Olmetto 5", "Categories": "Massage, Fitness & Instruction", "Average Star Rating": 0.0, "Review Count": 0, "Neighborhood": "Duomo", "info": "PALESTRA" }, "geometry": { "type": "Point", "coordinates": [ 9.18562, 45.45982 ] } },
{ "type": "Feature", "properties": { "Nome": "Judo Club Spartacus", "Indirizzo": "Via Pietro Mascagni, 6", "Categories": "Fitness & Instruction", "Average Star Rating": 0.0, "Review Count": 0, "Neighborhood": "Guastalla", "info": "PALESTRA" }, "geometry": { "type": "Point", "coordinates": [ 9.20147, 45.46584 ] } },
{ "type": "Feature", "properties": { "Nome": "Associazione Sportiva Doria Team Onlus", "Indirizzo": "Via Pietro Mascagni, 6", "Categories": "Fitness & Instruction", "Average Star Rating": 0.0, "Review Count": 0, "Neighborhood": "Guastalla", "info": "PALESTRA" }, "geometry": { "type": "Point", "coordinates": [ 9.20147, 45.46584 ] } },
{ "type": "Feature", "properties": { "Nome": "Pilates Suite Brera", "Indirizzo": "Via Fiori Chiari 14", "Categories": "Pilates, Gyms, Yoga", "Average Star Rating": 5.0, "Review Count": 1, "Neighborhood": "Brera", "info": "PALESTRA" }, "geometry": { "type": "Point", "coordinates": [ 9.18697, 45.47223 ] } },
{ "type": "Feature", "properties": { "Nome": "Remise EN Forme Societa' Cooperativa", "Indirizzo": "Via Plinio, 22", "Categories": "Fitness & Instruction", "Average Star Rating": 0.0, "Review Count": 0, "Neighborhood": "Buenos Aires - Venezia", "info": "PALESTRA" }, "geometry": { "type": "Point", "coordinates": [ 9.21417, 45.47821 ] } },
{ "type": "Feature", "properties": { "Nome": "Spazio Astoria", "Indirizzo": "Viale Monte Nero 55", "Categories": "Venues & Event Spaces, Yoga", "Average Star Rating": 4.3, "Review Count": 4, "Neighborhood": "Guastalla", "info": "PALESTRA" }, "geometry": { "type": "Point", "coordinates": [ 9.20646, 45.45918 ] } },
{ "type": "Feature", "properties": { "Nome": "Nuoto & Fitness Milano Societa' Sportiva Dilettantistica", "Indirizzo": "Via Piranesi Giovanni Battista, 9", "Categories": "Fitness & Instruction", "Average Star Rating": 0.0, "Review Count": 0, "Neighborhood": "Corsica", "info": "PALESTRA" }, "geometry": { "type": "Point", "coordinates": [ 9.22591, 45.46072 ] } },
{ "type": "Feature", "properties": { "Nome": "Studio Tiger", "Indirizzo": "Via Alessandro Tadino 29", "Categories": "Yoga, Pilates, Trainers", "Average Star Rating": 0.0, "Review Count": 0, "Neighborhood": "Buenos Aires - Venezia", "info": "PALESTRA" }, "geometry": { "type": "Point", "coordinates": [ 9.20793, 45.47951 ] } },
{ "type": "Feature", "properties": { "Nome": "Midline", "Indirizzo": "Via Mecenate, 3/1", "Categories": "Fitness & Instruction", "Average Star Rating": 0.0, "Review Count": 0, "Neighborhood": "Mecenate", "info": "PALESTRA" }, "geometry": { "type": "Point", "coordinates": [ 9.24361, 45.4570099 ] } },
{ "type": "Feature", "properties": { "Nome": "Palestra Best Price 20hours", "Indirizzo": "Via Sismondi 43", "Categories": "Fitness & Instruction", "Average Star Rating": 1.7, "Review Count": 9, "Neighborhood": "Corsica", "info": "PALESTRA" }, "geometry": { "type": "Point", "coordinates": [ 9.23107, 45.46566 ] } },
{ "type": "Feature", "properties": { "Nome": "Yoga @benedettaspada", "Indirizzo": "Via Mario Giuriati 4", "Categories": "Yoga", "Average Star Rating": 0.0, "Review Count": 0, "Neighborhood": "XXII Marzo", "info": "PALESTRA" }, "geometry": { "type": "Point", "coordinates": [ 9.2221298, 45.463459 ] } },
{ "type": "Feature", "properties": { "Nome": "Mrs. Sporty", "Indirizzo": "Via Sighele 2", "Categories": "Fitness & Instruction", "Average Star Rating": 4.0, "Review Count": 3, "Neighborhood": "Corsica", "info": "PALESTRA" }, "geometry": { "type": "Point", "coordinates": [ 9.22882, 45.46728 ] } },
{ "type": "Feature", "properties": { "Nome": "Jhana Loft", "Indirizzo": "Via Sirtori, 4", "Categories": "Yoga", "Average Star Rating": 0.0, "Review Count": 0, "Neighborhood": "Buenos Aires - Venezia", "info": "PALESTRA" }, "geometry": { "type": "Point", "coordinates": [ 9.20844, 45.47247 ] } },
{ "type": "Feature", "properties": { "Nome": "Yoga con Silvia", "Indirizzo": "Via Francesco Guicciardini", "Categories": "Yoga", "Average Star Rating": 0.0, "Review Count": 0, "Neighborhood": "XXII Marzo", "info": "PALESTRA" }, "geometry": { "type": "Point", "coordinates": [ 9.20871, 45.46696 ] } },
{ "type": "Feature", "properties": { "Nome": "Cryonic Lab", "Indirizzo": "Via dell'Orso 12", "Categories": "Trainers, Cryotherapy", "Average Star Rating": 0.0, "Review Count": 0, "Neighborhood": "Brera", "info": "PALESTRA" }, "geometry": { "type": "Point", "coordinates": [ 9.18666, 45.46912 ] } },
{ "type": "Feature", "properties": { "Nome": "Sanbabila Sportclub Societa' Sportiva Dilettantistica A", "Indirizzo": "C. Venezia, 7/SC.A", "Categories": "Massage, Fitness & Instruction", "Average Star Rating": 0.0, "Review Count": 0, "Neighborhood": "Duomo", "info": "PALESTRA" }, "geometry": { "type": "Point", "coordinates": [ 9.19824, 45.46785 ] } },
{ "type": "Feature", "properties": { "Nome": "Shotokan Karatedo International - Italia S.K.I. I.", "Indirizzo": "Viale Monte Grappa, 6", "Categories": "Karate", "Average Star Rating": 0.0, "Review Count": 0, "Neighborhood": "GARIBALDI REPUBBLICA", "info": "PALESTRA" }, "geometry": { "type": "Point", "coordinates": [ 9.19163, 45.48052 ] } },
{ "type": "Feature", "properties": { "Nome": "Bruno / Annamaria, prof.", "Indirizzo": "Via Castel Morrone, 34", "Categories": "Dance Studios", "Average Star Rating": 0.0, "Review Count": 0, "Neighborhood": "Buenos Aires - Venezia", "info": "PALESTRA" }, "geometry": { "type": "Point", "coordinates": [ 9.215, 45.4724 ] } },
{ "type": "Feature", "properties": { "Nome": "Centro Yoga Bhadra", "Indirizzo": "Via Bruno Giordano, 11", "Categories": "Fitness & Instruction", "Average Star Rating": 0.0, "Review Count": 0, "Neighborhood": "Sarpi", "info": "PALESTRA" }, "geometry": { "type": "Point", "coordinates": [ 9.17571, 45.48063 ] } },
{ "type": "Feature", "properties": { "Nome": "Professor Forte Calatti Andrea", "Indirizzo": "Via Statuto, 4", "Categories": "Fitness & Instruction", "Average Star Rating": 0.0, "Review Count": 0, "Neighborhood": "Brera", "info": "PALESTRA" }, "geometry": { "type": "Point", "coordinates": [ 9.18629, 45.47598 ] } },
{ "type": "Feature", "properties": { "Nome": "Armonia", "Indirizzo": "Via Cusani, 1", "Categories": "Dance Studios", "Average Star Rating": 0.0, "Review Count": 0, "Neighborhood": "Brera", "info": "PALESTRA" }, "geometry": { "type": "Point", "coordinates": [ 9.18511, 45.46884 ] } },
{ "type": "Feature", "properties": { "Nome": "Asiaclara", "Indirizzo": null, "Categories": "Massage, Yoga", "Average Star Rating": 0.0, "Review Count": 0, "Neighborhood": "Duomo", "info": "PALESTRA" }, "geometry": { "type": "Point", "coordinates": [ 9.186516, 45.4654542 ] } },
{ "type": "Feature", "properties": { "Nome": "C.I.M.D. Centro Internazionale di Movimento e Danza", "Indirizzo": "Via Fontana, 15", "Categories": "Dance Studios", "Average Star Rating": 0.0, "Review Count": 0, "Neighborhood": "Guastalla", "info": "PALESTRA" }, "geometry": { "type": "Point", "coordinates": [ 9.20532, 45.46163 ] } },
{ "type": "Feature", "properties": { "Nome": "Centro Studi Coreogr. Scuola di Teatro del Balletto di Milano", "Indirizzo": "C. di Porta Romana, 63", "Categories": "Dance Studios", "Average Star Rating": 0.0, "Review Count": 0, "Neighborhood": "Guastalla", "info": "PALESTRA" }, "geometry": { "type": "Point", "coordinates": [ 9.19516, 45.45659 ] } },
{ "type": "Feature", "properties": { "Nome": "Alina Quintana", "Indirizzo": "Galleria San Babila 4A", "Categories": "Dance Studios", "Average Star Rating": 0.0, "Review Count": 0, "Neighborhood": "Duomo", "info": "PALESTRA" }, "geometry": { "type": "Point", "coordinates": [ 9.19858, 45.46636 ] } },
{ "type": "Feature", "properties": { "Nome": "Power Yoga @benedetta", "Indirizzo": "Via San Calocero", "Categories": "Yoga", "Average Star Rating": 0.0, "Review Count": 0, "Neighborhood": "Vigentina", "info": "PALESTRA" }, "geometry": { "type": "Point", "coordinates": [ 9.192770004272459, 45.451999664306598 ] } },
{ "type": "Feature", "properties": { "Nome": "A.s.fitness Professionals FIA", "Indirizzo": "Via Cosimo del Fante, 10", "Categories": "Sports Clubs, Fitness & Instruction", "Average Star Rating": 0.0, "Review Count": 0, "Neighborhood": "Ticinese", "info": "PALESTRA" }, "geometry": { "type": "Point", "coordinates": [ 9.18547, 45.4554 ] } },
{ "type": "Feature", "properties": { "Nome": "Rita Casadio", "Indirizzo": "Via Ciro Menotti 2A", "Categories": "Yoga, Meditation Centers, Counseling & Mental Health", "Average Star Rating": 0.0, "Review Count": 0, "Neighborhood": "Buenos Aires - Venezia", "info": "PALESTRA" }, "geometry": { "type": "Point", "coordinates": [ 9.21345, 45.46847 ] } },
{ "type": "Feature", "properties": { "Nome": "Younique Health Club", "Indirizzo": "Via Falcone, 5", "Categories": "Fitness & Instruction", "Average Star Rating": 0.0, "Review Count": 0, "Neighborhood": "Duomo", "info": "PALESTRA" }, "geometry": { "type": "Point", "coordinates": [ 9.1878499, 45.46252 ] } },
{ "type": "Feature", "properties": { "Nome": "Gallone / Umberto, prof.", "Indirizzo": "Via Pietro Calvi, 18", "Categories": "Dance Studios", "Average Star Rating": 0.0, "Review Count": 0, "Neighborhood": "XXII Marzo", "info": "PALESTRA" }, "geometry": { "type": "Point", "coordinates": [ 9.2102, 45.46425 ] } },
{ "type": "Feature", "properties": { "Nome": "Centro Il Delfino di Lazzari DR. Nicola", "Indirizzo": "Via del Bollo, 1", "Categories": "Fitness & Instruction", "Average Star Rating": 0.0, "Review Count": 0, "Neighborhood": "Duomo", "info": "PALESTRA" }, "geometry": { "type": "Point", "coordinates": [ 9.18444, 45.46306 ] } },
{ "type": "Feature", "properties": { "Nome": "Araña Tango", "Indirizzo": "Via Cadore 26", "Categories": "Dance Studios", "Average Star Rating": 0.0, "Review Count": 0, "Neighborhood": "XXII Marzo", "info": "PALESTRA" }, "geometry": { "type": "Point", "coordinates": [ 9.2128696, 45.4582901 ] } },
{ "type": "Feature", "properties": { "Nome": "Sportsman Club", "Indirizzo": "Via Cosimo del Fante, 3", "Categories": "Fitness & Instruction", "Average Star Rating": 0.0, "Review Count": 0, "Neighborhood": "Ticinese", "info": "PALESTRA" }, "geometry": { "type": "Point", "coordinates": [ 9.18683, 45.45517 ] } },
{ "type": "Feature", "properties": { "Nome": "Ivan Perujo", "Indirizzo": "Piazza Risorgimento 3", "Categories": "Trainers", "Average Star Rating": 0.0, "Review Count": 0, "Neighborhood": "Buenos Aires - Venezia", "info": "PALESTRA" }, "geometry": { "type": "Point", "coordinates": [ 9.21005, 45.46841 ] } },
{ "type": "Feature", "properties": { "Nome": "Centro Incorpore", "Indirizzo": "Via Nirone 19", "Categories": "Pilates, Yoga", "Average Star Rating": 0.0, "Review Count": 0, "Neighborhood": "Duomo", "info": "PALESTRA" }, "geometry": { "type": "Point", "coordinates": [ 9.17848404496908, 45.463992141763597 ] } },
{ "type": "Feature", "properties": { "Nome": "20 Hours Club", "Indirizzo": "", "Categories": "Gyms", "Average Star Rating": 2.0, "Review Count": 2, "Neighborhood": "Stadera", "info": "PALESTRA" }, "geometry": { "type": "Point", "coordinates": [ 9.18289062983561, 45.432942394431798 ] } },
{ "type": "Feature", "properties": { "Nome": "20 Hours", "Indirizzo": "Via Francesco Brioschi 26", "Categories": "Gyms", "Average Star Rating": 0.0, "Review Count": 0, "Neighborhood": "Ticinese", "info": "PALESTRA" }, "geometry": { "type": "Point", "coordinates": [ 9.18056061321456, 45.445539471365997 ] } },
{ "type": "Feature", "properties": { "Nome": "A.S. Free Time Center", "Indirizzo": "Via Verro Bernardino, 62", "Categories": "Fitness & Instruction", "Average Star Rating": 0.0, "Review Count": 0, "Neighborhood": "Ripamonti", "info": "PALESTRA" }, "geometry": { "type": "Point", "coordinates": [ 9.19416, 45.43685 ] } },
{ "type": "Feature", "properties": { "Nome": "Tonic Corvetto", "Indirizzo": "Via Oglio", "Categories": "Gyms", "Average Star Rating": 1.0, "Review Count": 1, "Neighborhood": "Lodi - Corvetto", "info": "PALESTRA" }, "geometry": { "type": "Point", "coordinates": [ 9.21966969793513, 45.440642356775498 ] } },
{ "type": "Feature", "properties": { "Nome": "Dynamic Center di Tosi Paolo & Fontolan Beatrice", "Indirizzo": "Via Achille Feraboli, 37", "Categories": "Fitness & Instruction", "Average Star Rating": 0.0, "Review Count": 0, "Neighborhood": "Gratosoglio - Ticinello", "info": "PALESTRA" }, "geometry": { "type": "Point", "coordinates": [ 9.1699, 45.41448 ] } },
{ "type": "Feature", "properties": { "Nome": "Patuà", "Indirizzo": "Via Carlo Bianconi 10", "Categories": "Martial Arts", "Average Star Rating": 3.0, "Review Count": 2, "Neighborhood": "Ripamonti", "info": "PALESTRA" }, "geometry": { "type": "Point", "coordinates": [ 9.2034449, 45.4346712 ] } },
{ "type": "Feature", "properties": { "Nome": "Centro Tian Qi", "Indirizzo": "Via Privata Bastia 5", "Categories": "Gyms", "Average Star Rating": 0.0, "Review Count": 0, "Neighborhood": "Scalo Romana", "info": "PALESTRA" }, "geometry": { "type": "Point", "coordinates": [ 9.20115, 45.44109 ] } },
{ "type": "Feature", "properties": { "Nome": "Associazione Latin GEM", "Indirizzo": "Via SAN Mansueto, 3", "Categories": "Dance Studios", "Average Star Rating": 0.0, "Review Count": 0, "Neighborhood": "Vigentina", "info": "PALESTRA" }, "geometry": { "type": "Point", "coordinates": [ 9.19333, 45.4505 ] } },
{ "type": "Feature", "properties": { "Nome": "Onstage di Donatella Bianchini", "Indirizzo": "Via Rutilia, 10/8", "Categories": "Dance Studios", "Average Star Rating": 0.0, "Review Count": 0, "Neighborhood": "Ex Om - Morivione", "info": "PALESTRA" }, "geometry": { "type": "Point", "coordinates": [ 9.19854, 45.44072 ] } },
{ "type": "Feature", "properties": { "Nome": "Scuola di Danza Primavera Colorni Associazione Sportiva", "Indirizzo": "Viale Sabotino, 14", "Categories": "Dance Studios", "Average Star Rating": 0.0, "Review Count": 0, "Neighborhood": "Porta Romana", "info": "PALESTRA" }, "geometry": { "type": "Point", "coordinates": [ 9.19992, 45.45084 ] } },
{ "type": "Feature", "properties": { "Nome": "Onstage New Age", "Indirizzo": "Via Giuseppe Ripamonti 114", "Categories": "Dance Studios, Pilates, Massage", "Average Star Rating": 0.0, "Review Count": 0, "Neighborhood": "Ex Om - Morivione", "info": "PALESTRA" }, "geometry": { "type": "Point", "coordinates": [ 9.19979, 45.43938 ] } },
{ "type": "Feature", "properties": { "Nome": "AWD", "Indirizzo": "Via Simone D'Orsenigo 27", "Categories": "Dance Studios, Martial Arts", "Average Star Rating": 0.0, "Review Count": 0, "Neighborhood": "XXII Marzo", "info": "PALESTRA" }, "geometry": { "type": "Point", "coordinates": [ 9.2157097, 45.4550705 ] } },
{ "type": "Feature", "properties": { "Nome": "Accademia del Karate Studio Shirai", "Indirizzo": "Via Friuli, 65", "Categories": "Karate", "Average Star Rating": 0.0, "Review Count": 0, "Neighborhood": "XXII Marzo", "info": "PALESTRA" }, "geometry": { "type": "Point", "coordinates": [ 9.21458, 45.45618 ] } },
{ "type": "Feature", "properties": { "Nome": "Federazione Italiana Karate Tradizionale e Discipline Affini", "Indirizzo": "Via Lattanzio, 68", "Categories": "Karate", "Average Star Rating": 0.0, "Review Count": 0, "Neighborhood": "Umbria - Molise", "info": "PALESTRA" }, "geometry": { "type": "Point", "coordinates": [ 9.21781, 45.4536299 ] } },
{ "type": "Feature", "properties": { "Nome": "Myland Crossfit", "Indirizzo": "Via Riccardo Lombardi 19", "Categories": "Gyms", "Average Star Rating": 5.0, "Review Count": 2, "Neighborhood": "Parco Agricolo Sud", "info": "PALESTRA" }, "geometry": { "type": "Point", "coordinates": [ 9.064248180195349, 45.4626131475476 ] } },
{ "type": "Feature", "properties": { "Nome": "Associazione Danza Gianni Zari", "Indirizzo": "Via Sambuco, 5/3", "Categories": "Dance Studios", "Average Star Rating": 0.0, "Review Count": 0, "Neighborhood": "Ticinese", "info": "PALESTRA" }, "geometry": { "type": "Point", "coordinates": [ 9.18359, 45.45347 ] } },
{ "type": "Feature", "properties": { "Nome": "Polisquash", "Indirizzo": "Via Giovanni Pascoli 70", "Categories": "Squash, Gyms", "Average Star Rating": 0.0, "Review Count": 0, "Neighborhood": "Città Studi", "info": "PALESTRA" }, "geometry": { "type": "Point", "coordinates": [ 9.225362, 45.476039 ] } },
{ "type": "Feature", "properties": { "Nome": "L'albero Associazione per L'educazione AL Movimento", "Indirizzo": "Via Beato Angelico, 23/1", "Categories": "Dance Studios", "Average Star Rating": 0.0, "Review Count": 0, "Neighborhood": "Città Studi", "info": "PALESTRA" }, "geometry": { "type": "Point", "coordinates": [ 9.22802, 45.4714699 ] } },
{ "type": "Feature", "properties": { "Nome": "Dojo Ko-Sen", "Indirizzo": "C. Lodi, 74", "Categories": "Fitness & Instruction", "Average Star Rating": 0.0, "Review Count": 0, "Neighborhood": "Lodi - Corvetto", "info": "PALESTRA" }, "geometry": { "type": "Point", "coordinates": [ 9.21639, 45.44359 ] } },